"geonameid","name","asciiname","latitude","longitude","country_code","admin1_code","admin1_name","population","timezone","hl","gl"
"3652462","Quito","Quito","-0.22985","-78.52495","EC","18","Pichincha","2781641","America/Guayaquil","es","EC"
"5110302","Brooklyn","Brooklyn","40.6501","-73.94958","US","NY","New York","2736074","America/New_York","en","US"
"3657509","Guayaquil","Guayaquil","-2.19616","-79.88621","EC","10","Guayas","2723665","America/Guayaquil","es","EC"
"3470127","Belo Horizonte","Belo Horizonte","-19.92083","-43.93778","BR","15","Minas Gerais","2721564","America/Sao_Paulo","pt","BR"
"3450554","Salvador","Salvador","-12.97563","-38.49096","BR","05","Bahia","2711840","America/Bahia","pt","BR"
"4887398","Chicago","Chicago","41.85003","-87.65005","US","IL","Illinois","2664452","America/Chicago","en","US"
"6167865","Toronto","Toronto","43.70643","-79.39864","CA","08","Ontario","2600000","America/Toronto","en","CA"
"3399415","Fortaleza","Fortaleza","-3.71722","-38.54306","BR","06","Ceará","2400000","America/Fortaleza","pt","BR"
"3687925","Cali","Cali","3.43054","-76.5199","CO","29","Valle del Cauca Department","2392877","America/Bogota","es","CO"
"4699066","Houston","Houston","29.76328","-95.36327","US","TX","Texas","2314157","America/Chicago","en","US"
"5133273","Queens","Queens","40.68149","-73.83652","US","NY","New York","2272771","America/New_York","en","US"
"3633009","Maracaibo","Maracaibo","10.64232","-71.61089","VE","23","Zulia","2225000","America/Caracas","es","VE"
"3663517","Manaus","Manaus","-3.10194","-60.025","BR","04","Amazonas","2219580","America/Manaus","pt","BR"
"3469058","Brasília","Brasilia","-15.77972","-47.92972","BR","07","Federal District","2207718","America/Sao_Paulo","pt","BR"
"3492908","Santo Domingo","Santo Domingo","18.47186","-69.89232","DO","34","Nacional","2201941","America/Santo_Domingo","es","DO"
"3553478","Havana","Havana","23.13302","-82.38304","CU","02","Havana","2163824","America/Havana","es","CU"
"3911925","La Paz","La Paz","-16.5","-68.15","BO","04","La Paz Department","2004652","America/La_Paz","es","BO"
"3674962","Medellín","Medellin","6.245","-75.57151","CO","02","Antioquia","1999979","America/Bogota","es","CO"
"3464975","Curitiba","Curitiba","-25.42778","-49.27306","BR","18","Paraná","1948626","America/Sao_Paulo","pt","BR"
"3981609","Tijuana","Tijuana","32.5027","-117.00371","MX","02","Baja California","1922523","America/Tijuana","es","MX"
"3904906","Santa Cruz de la Sierra","Santa Cruz de la Sierra","-17.78629","-63.18117","BO","08","Santa Cruz Department","1831434","America/La_Paz","es","BO"
"3526683","Iztapalapa","Iztapalapa","19.35529","-99.06224","MX","09","Mexico City","1815786","America/Mexico_City","es","MX"
"6077243","Montréal","Montreal","45.50884","-73.58781","CA","10","Quebec","1762949","America/Toronto","fr","CA"
"3632998","Maracay","Maracay","10.24972","-67.59475","VE","04","Aragua","1754256","America/Caracas","es","VE"
"3998655","León de los Aldama","Leon de los Aldama","21.12908","-101.67374","MX","11","Guanajuato","1721199","America/Mexico_City","es","MX"
"3521081","Puebla","Puebla","19.04778","-98.20723","MX","21","Puebla","1692181","America/Mexico_City","es","MX"
"3390760","Recife","Recife","-8.05389","-34.88111","BR","30","Pernambuco","1653461","America/Recife","pt","BR"
"5308655","Phoenix","Phoenix","33.44838","-112.07404","US","AZ","Arizona","1650070","America/Phoenix","en","US"
"3529612","Ecatepec de Morelos","Ecatepec de Morelos","19.60492","-99.06064","MX","15","México","1645352","America/Mexico_City","es","MX"
"3625549","Valencia","Valencia","10.16153","-68.00044","VE","07","Carabobo","1619470","America/Caracas","es","VE"
"3991164","Santiago de Querétaro","Santiago de Queretaro","20.58806","-100.38806","MX","22","Querétaro","1594212","America/Mexico_City","es","MX"
"4560349","Philadelphia","Philadelphia","39.95238","-75.16362","US","PA","Pennsylvania","1573916","America/New_York","en","US"
"3462377","Goiânia","Goiania","-16.67861","-49.25389","BR","29","Goiás","1536097","America/Sao_Paulo","pt","BR"
"4013708","Ciudad Juárez","Ciudad Juarez","31.72024","-106.46084","MX","06","Chihuahua","1501551","America/Ciudad_Juarez","es","MX"
"3405870","Belém","Belem","-1.45583","-48.50444","BR","16","Pará","1499641","America/Belem","pt","BR"
"3452925","Porto Alegre","Porto Alegre","-30.03283","-51.23019","BR","23","Rio Grande do Sul","1488252","America/Sao_Paulo","pt","BR"
"5125771","Manhattan","Manhattan","40.78343","-73.96625","US","NY","New York","1487536","America/New_York","en","US"
"3439389","Asunción","Asuncion","-25.28646","-57.647","PY","22","Asunción","1482200","America/Asuncion","es","PY"
"3979770","Zapopan","Zapopan","20.72356","-103.38479","MX","14","Jalisco","1476491","America/Mexico_City","es","MX"
"4726206","San Antonio","San Antonio","29.42412","-98.49363","US","TX","Texas","1434625","America/Chicago","en","US"
"5391811","San Diego","San Diego","32.71571","-117.16472","US","CA","California","1394928","America/Los_Angeles","en","US"
"4005539","Guadalajara","Guadalajara","20.67738","-103.34749","MX","14","Jalisco","1385629","America/Mexico_City","es","MX"
"5110266","The Bronx","The Bronx","40.84985","-73.86641","US","NY","New York","1385108","America/New_York","en","US"
"3860259","Córdoba","Cordoba","-31.40648","-64.18853","AR","05","Cordoba","1317298","America/Argentina/Cordoba","es","AR"
"4684888","Dallas","Dallas","32.78306","-96.80667","US","TX","Texas","1300092","America/Chicago","en","US"
"3946083","Callao","Callao","-12.05162","-77.13452","PE","07","Callao","1300000","America/Lima","es","PE"
"3441575","Montevideo","Montevideo","-34.90328","-56.18816","UY","10","Montevideo Department","1270737","America/Montevideo","es","UY"
"3648522","Barquisimeto","Barquisimeto","10.0647","-69.35703","VE","13","Lara","1240714","America/Caracas","es","VE"
"3718426","Port-au-Prince","Port-au-Prince","18.54349","-72.33881","HT","11","Ouest","1234742","America/Port-au-Prince","fr","HT"
"3689147","Barranquilla","Barranquilla","10.96854","-74.78132","CO","04","Atlántico","1206319","America/Bogota","es","CO"
"3523349","Mérida","Merida","20.967","-89.62318","MX","31","Yucatán","1201000","America/Merida","es","MX"
"3492914","Santiago de los Caballeros","Santiago de los Caballeros","19.45036","-70.69085","DO","25","Santiago Province","1200000","America/Santo_Domingo","es","DO"
"3514674","Gustavo Adolfo Madero","Gustavo Adolfo Madero","19.49392","-99.11075","MX","09","Mexico City","1185772","America/Mexico_City","es","MX"
"3461786","Guarulhos","Guarulhos","-23.46278","-46.53333","BR","27","São Paulo","1169577","America/Sao_Paulo","pt","BR"
"3995465","Monterrey","Monterrey","25.68435","-100.31721","MX","19","Nuevo León","1135512","America/Monterrey","es","MX"
"3530589","Ciudad Nezahualcoyotl","Ciudad Nezahualcoyotl","19.40061","-99.01483","MX","15","México","1104585","America/Mexico_City","es","MX"
"3996069","Mexicali","Mexicali","32.62781","-115.45446","MX","02","Baja California","1032686","America/Tijuana","es","MX"
"3395981","Maceió","Maceio","-9.66583","-35.73528","BR","02","Alagoas","1031597","America/Maceio","pt","BR"
"3467865","Campinas","Campinas","-22.90556","-47.06083","BR","27","São Paulo","1031554","America/Sao_Paulo","pt","BR"
"5392171","San Jose","San Jose","37.33939","-121.89496","US","CA","California","1026908","America/Los_Angeles","en","US"
"5913490","Calgary","Calgary","51.05011","-114.08529","CA","01","Alberta","1019942","America/Edmonton","en","CA"
"5946768","Edmonton","Edmonton","53.55014","-113.46871","CA","01","Alberta","1010899","America/Edmonton","en","CA"
"3947322","Arequipa","Arequipa","-16.39899","-71.53747","PE","04","Arequipa","1008290","America/Lima","es","PE"
"3598132","Guatemala City","Guatemala City","14.64072","-90.51327","GT","07","Guatemala","994938","America/Guatemala","es","GT"
"4671654","Austin","Austin","30.26715","-97.74306","US","TX","Texas","974447","America/Chicago","en","US"
"3617763","Managua","Managua","12.13282","-86.2504","NI","10","Managua Department","973087","America/Managua","es","NI"
"4160021","Jacksonville","Jacksonville","30.33218","-81.65565","US","FL","Florida","954614","America/New_York","en","US"
"3645528","Ciudad Guayana","Ciudad Guayana","8.35122","-62.64102","VE","06","Bolívar","950000","America/Caracas","es","VE"
"3838583","Rosario","Rosario","-32.94682","-60.63932","AR","21","Santa Fe","948312","America/Argentina/Cordoba","es","AR"
"3489854","Kingston","Kingston","17.99702","-76.79358","JM","17","Kingston","937700","America/Jamaica","en","JM"
"4014338","Chihuahua","Chihuahua","28.63528","-106.08889","MX","06","Chihuahua","925762","America/Chihuahua","es","MX"
"3691175","Trujillo","Trujillo","-8.11599","-79.02998","PE","13","La Libertad","919899","America/Lima","es","PE"
"4691930","Fort Worth","Fort Worth","32.72541","-97.32085","US","TX","Texas","918915","America/Chicago","en","US"
"3388368","São Luís","Sao Luis","-2.52972","-44.30278","BR","13","Maranhão","917237","America/Fortaleza","pt","BR"
"3687238","Cartagena","Cartagena","10.39817","-75.49328","CO","35","Bolívar","914552","America/Bogota","es","CO"
"4509177","Columbus","Columbus","39.96118","-82.99879","US","OH","Ohio","913175","America/New_York","en","US"
"3467747","Campo Grande","Campo Grande","-20.44278","-54.64639","BR","11","Mato Grosso do Sul","906092","America/Campo_Grande","pt","BR"
"3394023","Natal","Natal","-5.795","-35.20944","BR","22","Rio Grande do Norte","896708","America/Fortaleza","pt","BR"
"4259418","Indianapolis","Indianapolis","39.76838","-86.15804","US","IN","Indiana","887642","America/Indiana/Indianapolis","en","US"
"4460243","Charlotte","Charlotte","35.22709","-80.84313","US","NC","North Carolina","874579","America/New_York","en","US"
"3386496","Teresina","Teresina","-5.08917","-42.80194","BR","20","Piauí","871126","America/Fortaleza","pt","BR"
"5391959","San Francisco","San Francisco","37.77493","-122.41942","US","CA","California","864816","America/Los_Angeles","en","US"
"3600949","Tegucigalpa","Tegucigalpa","14.0818","-87.20681","HN","08","Francisco Morazán Department","850848","America/Tegucigalpa","es","HN"
"3919968","Cochabamba","Cochabamba","-17.38195","-66.15995","BO","02","Cochabamba","841276","America/La_Paz","es","BO"
"3456160","Nova Iguaçu","Nova Iguacu","-22.75917","-43.45111","BR","21","Rio de Janeiro","823302","America/Sao_Paulo","pt","BR"
"3464374","Duque de Caxias","Duque de Caxias","-22.78556","-43.31167","BR","21","Rio de Janeiro","818329","America/Sao_Paulo","pt","BR"
"3397277","João Pessoa","Joao Pessoa","-7.115","-34.86306","BR","17","Paraíba","817511","America/Fortaleza","pt","BR"
"3648559","Barcelona","Barcelona","10.1384","-64.68769","VE","02","Anzoátegui","815141","America/Caracas","es","VE"
"4004898","Hermosillo","Hermosillo","29.08874","-110.96677","MX","26","Sonora","812229","America/Hermosillo","es","MX"
"6094817","Ottawa","Ottawa","45.41117","-75.69812","CA","08","Ontario","812129","America/Toronto","en","CA"
"4012176","Culiacán","Culiacan","24.80209","-107.39421","MX","25","Sinaloa","808416","America/Mazatlan","es","MX"
"3601782","San Pedro Sula","San Pedro Sula","15.50585","-88.02588","HN","06","Cortés Department","801259","America/Tegucigalpa","es","HN"
"3522790","Naucalpan de Juárez","Naucalpan de Juarez","19.47851","-99.23963","MX","15","México","792211","America/Mexico_City","es","MX"
"3685533","Cúcuta","Cucuta","7.90745","-72.5049","CO","21","Norte de Santander Department","777106","America/Bogota","es","CO"
"6183235","Winnipeg","Winnipeg","49.8844","-97.14704","CA","03","Manitoba","749607","America/Winnipeg","en","CA"
"3449344","São Bernardo do Campo","Sao Bernardo do Campo","-23.69389","-46.565","BR","27","São Paulo","743372","America/Sao_Paulo","pt","BR"
"3995402","Morelia","Morelia","19.70078","-101.18443","MX","16","Michoacán","743275","America/Mexico_City","es","MX"
"5809844","Seattle","Seattle","47.60621","-122.33207","US","WA","Washington","737015","America/Los_Angeles","en","US"
"3981254","Torreón","Torreon","25.54389","-103.41898","MX","07","Coahuila","735340","America/Monterrey","es","MX"
"3448636","São José dos Campos","Sao Jose dos Campos","-23.17944","-45.88694","BR","27","São Paulo","729737","America/Sao_Paulo","pt","BR"
"5419384","Denver","Denver","39.73915","-104.9847","US","CO","Colorado","729019","America/Denver","en","US"
"3514663","Álvaro Obregón","Alvaro Obregon","19.35867","-99.20329","MX","09","Mexico City","726664","America/Mexico_City","es","MX"
"3985606","San Luis Potosí","San Luis Potosi","22.15234","-100.97135","MX","24","San Luis Potosí","722772","America/Monterrey","es","MX"
"4019233","Aguascalientes","Aguascalientes","21.88262","-102.2843","MX","01","Aguascalientes","722250","America/Mexico_City","es","MX"
"3451328","Ribeirão Preto","Ribeirao Preto","-21.1775","-47.81028","BR","27","São Paulo","711825","America/Sao_Paulo","pt","BR"
"3988086","Saltillo","Saltillo","25.42595","-100.97963","MX","07","Coahuila","709671","America/Monterrey","es","MX"
"3397838","Jaboatão","Jaboatao","-8.18028","-35.00139","BR","30","Pernambuco","702621","America/Recife","pt","BR"
"7874116","Santo Domingo Oeste","Santo Domingo Oeste","18.5","-70.0","DO","37","Santo Domingo Province","701269","America/Santo_Domingo","es","DO"
"8601412","Santo Domingo Este","Santo Domingo Este","18.48511","-69.84757","DO","37","Santo Domingo Province","700000","America/Santo_Domingo","es","DO"
"4140963","Washington","Washington","38.89511","-77.03637","US","DC","District of Columbia","689545","America/New_York","en","US"
"4644585","Nashville","Nashville","36.16589","-86.78444","US","TN","Tennessee","689447","America/Chicago","en","US"
"3447399","Sorocaba","Sorocaba","-23.50167","-47.45806","BR","27","São Paulo","687357","America/Sao_Paulo","pt","BR"
"5520993","El Paso","El Paso","31.75872","-106.48693","US","TX","Texas","681124","America/Denver","en","US"
"4544349","Oklahoma City","Oklahoma City","35.46756","-97.51643","US","OK","Oklahoma","681054","America/Chicago","en","US"
"3455775","Osasco","Osasco","-23.5325","-46.79167","BR","27","São Paulo","677856","America/Sao_Paulo","pt","BR"
"4990729","Detroit","Detroit","42.33143","-83.04575","US","MI","Michigan","677116","America/Detroit","en","US"
"4005492","Guadalupe","Guadalupe","25.67678","-100.25646","MX","19","Nuevo León","673616","America/Monterrey","es","MX"
"3533462","Acapulco de Juárez","Acapulco de Juarez","16.84942","-99.90891","MX","12","Guerrero","673479","America/Mexico_City","es","MX"
"6075357","Mississauga","Mississauga","43.5789","-79.6583","CA","08","Ontario","668549","America/Toronto","en","CA"
"3471872","Aracaju","Aracaju","-10.91111","-37.07167","BR","28","Sergipe","664908","America/Maceio","pt","BR"
"3449701","Santo André","Santo Andre","-23.66389","-46.53833","BR","27","São Paulo","662373","America/Sao_Paulo","pt","BR"
"4930956","Boston","Boston","42.35843","-71.05977","US","MA","Massachusetts","653833","America/New_York","en","US"
"3515431","Tlalnepantla","Tlalnepantla","19.54005","-99.19538","MX","15","México","653410","America/Mexico_City","es","MX"
"5746545","Portland","Portland","45.52345","-122.67621","US","OR","Oregon","652503","America/Los_Angeles","en","US"
"3778045","Maturín","Maturin","9.74569","-63.18323","VE","16","Monagas","647459","America/Caracas","es","VE"
"4645421","New South Memphis","New South Memphis","35.08676","-90.05676","US","TN","Tennessee","641608","America/Chicago","en","US"
"3658666","Cuenca","Cuenca","-2.8953","-78.9963","EC","02","Azuay","636996","America/Guayaquil","es","EC"
"4641239","Memphis","Memphis","35.14953","-90.04898","US","TN","Tennessee","633104","America/Chicago","en","US"
"6317344","Jaboatão dos Guararapes","Jaboatao dos Guararapes","-8.11278","-35.01472","BR","30","Pernambuco","630008","America/Recife","pt","BR"
"3531673","Cancún","Cancun","21.17429","-86.84656","MX","23","Quintana Roo","628306","America/Cancun","es","MX"
"3465624","Contagem","Contagem","-19.93167","-44.05361","BR","15","Minas Gerais","627123","America/Sao_Paulo","pt","BR"
"4299276","Louisville","Louisville","38.25424","-85.75941","US","KY","Kentucky","624444","America/Kentucky/Louisville","en","US"
"5506956","Las Vegas","Las Vegas","36.17497","-115.13722","US","NV","Nevada","623747","America/Los_Angeles","en","US"
"3530139","Coyoacán","Coyoacan","19.3467","-99.16174","MX","09","Mexico City","620416","America/Mexico_City","es","MX"
"3463478","Feira de Santana","Feira de Santana","-12.26667","-38.96667","BR","05","Bahia","619609","America/Bahia","pt","BR"
"3587902","Villa Nueva","Villa Nueva","14.52512","-90.58544","GT","07","Guatemala","618397","America/Guatemala","es","GT"
"3465038","Cuiabá","Cuiaba","-15.59611","-56.09667","BR","14","Mato Grosso","618124","America/Cuiaba","pt","BR"
"3517270","Santa María Chimalhuacán","Santa Maria Chimalhuacan","19.42155","-98.95038","MX","15","México","612383","America/Mexico_City","es","MX"
"3515001","Tuxtla","Tuxtla","16.75357","-93.11578","MX","05","Chiapas","604147","America/Merida","es","MX"
"5263045","Milwaukee","Milwaukee","43.0389","-87.90647","US","WI","Wisconsin","600155","America/Chicago","en","US"
"6173331","Vancouver","Vancouver","49.24966","-123.11934","CA","02","British Columbia","600000","America/Vancouver","en","CA"
"5907364","Brampton","Brampton","43.68341","-79.76633","CA","08","Ontario","593638","America/Toronto","en","CA"
"3430863","Mar del Plata","Mar del Plata","-38.00042","-57.5562","AR","01","Buenos Aires","593337","America/Argentina/Buenos_Aires","es","AR"
"3520339","Reynosa","Reynosa","26.08005","-98.28456","MX","28","Tamaulipas","589466","America/Matamoros","es","MX"
"3458449","Londrina","Londrina","-23.31028","-51.16278","BR","18","Paraná","588125","America/Sao_Paulo","pt","BR"
"3489297","New Kingston","New Kingston","18.00747","-76.78319","JM","08","Saint Andrew Parish","583958","America/Jamaica","en","JM"
"3688465","Bucaramanga","Bucaramanga","7.125","-73.11895","CO","26","Santander Department","581130","America/Bogota","es","CO"
"4347778","Baltimore","Baltimore","39.29038","-76.61219","US","MD","Maryland","576498","America/New_York","en","US"
"3981461","Tlaquepaque","Tlaquepaque","20.64091","-103.29327","MX","14","Jalisco","575942","America/Mexico_City","es","MX"
"3515428","Tlalpan","Tlalpan","19.29513","-99.16206","MX","09","Mexico City","574577","America/Mexico_City","es","MX"
"3459505","Juiz de Fora","Juiz de Fora","-21.76417","-43.35028","BR","15","Minas Gerais","573285","America/Sao_Paulo","pt","BR"
"4951305","South Boston","South Boston","42.33343","-71.04949","US","MA","Massachusetts","571281","America/New_York","en","US"
"3875024","Puente Alto","Puente Alto","-33.61169","-70.57577","CL","12","Santiago Metropolitan","568106","America/Santiago","es","CL"
"3445831","Uberlândia","Uberlandia","-18.91861","-48.27722","BR","15","Minas Gerais","563536","America/Sao_Paulo","pt","BR"
"5454711","Albuquerque","Albuquerque","35.08449","-106.65114","US","NM","New Mexico","559121","America/Denver","en","US"
"3536729","Santiago de Cuba","Santiago de Cuba","20.02287","-75.82171","CU","15","Santiago de Cuba Province","555865","America/Havana","es","CU"
"3698350","Chiclayo","Chiclayo","-6.77008","-79.85495","PE","14","Lambayeque","552508","America/Lima","es","PE"
"3662762","Porto Velho","Porto Velho","-8.76194","-63.90389","BR","24","Rondônia","548952","America/Porto_Velho","pt","BR"
"3836873","San Miguel de Tucumán","San Miguel de Tucuman","-26.81601","-65.21051","AR","24","Tucuman","548866","America/Argentina/Tucuman","es","AR"
"6325494","Québec","Quebec","46.81228","-71.21454","CA","10","Quebec","531902","America/Toronto","fr","CA"
"3827409","Cuauhtémoc","Cuauhtemoc","19.44506","-99.14612","MX","09","Mexico City","531831","America/Mexico_City","es","MX"
"5318313","Tucson","Tucson","32.22174","-110.92648","US","AZ","Arizona","531641","America/Phoenix","en","US"
"3680656","Ibagué","Ibague","4.43573","-75.20289","CO","28","Tolima Department","529635","America/Bogota","es","CO"
"3583361","San Salvador","San Salvador","13.68935","-89.18718","SV","10","San Salvador Department","525990","America/El_Salvador","es","SV"
"5389489","Sacramento","Sacramento","38.58157","-121.4944","US","CA","California","524943","America/Los_Angeles","en","US"
"3838233","Salta","Salta","-24.80645","-65.41999","AR","17","Salta","520683","America/Argentina/Salta","es","AR"
"5350937","Fresno","Fresno","36.74773","-119.77237","US","CA","California","520052","America/Los_Angeles","en","US"
"5969782","Hamilton","Hamilton","43.25011","-79.84963","CA","08","Ontario","519949","America/Toronto","en","CA"
"4011743","Victoria de Durango","Victoria de Durango","24.02032","-104.65756","MX","10","Durango","518709","America/Monterrey","es","MX"
"3396016","Macapá","Macapa","0.03889","-51.06639","BR","03","Amapá","512902","America/Belem","pt","BR"
"3467693","Campos dos Goytacazes","Campos dos Goytacazes","-21.75227","-41.33044","BR","21","Rio de Janeiro","511168","America/Sao_Paulo","pt","BR"
"4180439","Atlanta","Atlanta","33.749","-84.38798","US","GA","Georgia","510823","America/New_York","en","US"
"6316406","Aparecida de Goiânia","Aparecida de Goiania","-16.82333","-49.24389","BR","29","Goiás","510770","America/Sao_Paulo","pt","BR"
"3463237","Florianópolis","Florianopolis","-27.59667","-48.54917","BR","26","Santa Catarina","508826","America/Sao_Paulo","pt","BR"
"3668605","Santa Marta","Santa Marta","11.23855","-74.19427","CO","38","Magdalena Department","499192","America/Bogota","es","CO"
"3674453","Montería","Monteria","8.75081","-75.87823","CO","12","Córdoba","490935","America/Bogota","es","CO"
"3666304","Valledupar","Valledupar","10.46538","-73.2531","CO","10","Cesar Department","490075","America/Bogota","es","CO"
"3515302","Toluca","Toluca","19.28786","-99.65324","MX","15","México","489333","America/Mexico_City","es","MX"
"3532624","Ciudad López Mateos","Ciudad Lopez Mateos","19.55793","-99.25675","MX","15","México","489160","America/Mexico_City","es","MX"
"5074472","Omaha","Omaha","41.25626","-95.94043","US","NE","Nebraska","486051","America/Chicago","en","US"
"3515807","Cuautitlán Izcalli","Cuautitlan Izcalli","19.64388","-99.21598","MX","15","México","484573","America/Mexico_City","es","MX"
"3693528","Piura","Piura","-5.18192","-80.65715","PE","20","Piura","484475","America/Lima","es","PE"
"4487042","Raleigh","Raleigh","35.7721","-78.63861","US","NC","North Carolina","482295","America/New_York","en","US"
"3457381","Mauá","Maua","-23.66778","-46.46139","BR","27","São Paulo","477552","America/Sao_Paulo","pt","BR"
"4393217","Kansas City","Kansas City","39.09973","-94.57857","US","MO","Missouri","475378","America/Chicago","en","US"
"5367929","Long Beach","Long Beach","33.76696","-118.18923","US","CA","California","474140","America/Los_Angeles","en","US"
"5304391","Mesa","Mesa","33.42227","-111.82264","US","AZ","Arizona","471825","America/Phoenix","en","US"
"5139568","Staten Island","Staten Island","40.56233","-74.13986","US","NY","New York","468730","America/New_York","en","US"
"3672486","Pereira","Pereira","4.81428","-75.69488","CO","24","Risaralda Department","467269","America/Bogota","es","CO"
"4018390","Ciudad Apodaca","Ciudad Apodaca","25.78195","-100.18839","MX","19","Nuevo León","467157","America/Monterrey","es","MX"
"3470142","Belford Roxo","Belford Roxo","-22.76417","-43.39944","BR","21","Rio de Janeiro","466096","America/Sao_Paulo","pt","BR"
"3592519","Mixco","Mixco","14.63077","-90.60711","GT","07","Guatemala","465773","America/Guatemala","es","GT"
"3459712","Joinville","Joinville","-26.30444","-48.84556","BR","26","Santa Catarina","461304","America/Sao_Paulo","pt","BR"
"3651297","Santo Domingo de los Colorados","Santo Domingo de los Colorados","-0.25368","-79.17628","EC","26","Santo Domingo de los Tsáchilas","458580","America/Guayaquil","es","EC"
"5417598","Colorado Springs","Colorado Springs","38.83388","-104.82136","US","CO","Colorado","456568","America/Denver","en","US"
"3456283","Niterói","Niteroi","-22.88333","-43.10361","BR","21","Rio de Janeiro","456456","America/Sao_Paulo","pt","BR"
"3939459","Huancayo","Huancayo","-12.06866","-75.21027","PE","12","Junin","456250","America/Lima","es","PE"
"3448877","São João de Meriti","Sao Joao de Meriti","-22.80389","-43.37222","BR","21","Rio de Janeiro","454849","America/Sao_Paulo","pt","BR"
"4791259","Virginia Beach","Virginia Beach","36.85293","-75.97799","US","VA","Virginia","452745","America/New_York","en","US"
"3523466","Heroica Matamoros","Heroica Matamoros","25.87972","-97.50417","MX","28","Tamaulipas","449815","America/Matamoros","es","MX"
"3985241","San Nicolás de los Garza","San Nicolas de los Garza","25.74167","-100.30222","MX","19","Nuevo León","443273","America/Monterrey","es","MX"
"3728338","Carrefour","Carrefour","18.54114","-72.39922","HT","11","Ouest","442156","America/Port-au-Prince","fr","HT"
"4164138","Miami","Miami","25.77427","-80.19366","US","FL","Florida","441003","America/New_York","en","US"
"6324729","Halifax","Halifax","44.64269","-63.57688","CA","07","Nova Scotia","439819","America/Halifax","en","CA"
"4013704","Ciudad Obregón","Ciudad Obregon","27.48642","-109.94079","MX","26","Sonora","436484","America/Hermosillo","es","MX"
"3675443","Manizales","Manizales","5.0668","-75.50684","CO","37","Caldas Department","434403","America/Bogota","es","CO"
"3407669","Ananindeua","Ananindeua","-1.36556","-48.37222","BR","16","Pará","433956","America/Belem","pt","BR"
"3449433","Santos","Santos","-23.96083","-46.33361","BR","27","São Paulo","433656","America/Sao_Paulo","pt","BR"
"3688452","Buenaventura","Buenaventura","3.58333","-77.0","CO","29","Valle del Cauca Department","432385","America/Bogota","es","CO"
"3827407","Venustiano Carranza","Venustiano Carranza","19.44361","-99.10499","MX","09","Mexico City","430978","America/Mexico_City","es","MX"
"3941584","Cusco","Cusco","-13.53188","-71.96701","PE","08","Cuzco Department","428450","America/Lima","es","PE"
"3514783","Veracruz","Veracruz","19.18095","-96.1429","MX","30","Veracruz","428323","America/Mexico_City","es","MX"
"3526617","Xalapa de Enríquez","Xalapa de Enriquez","19.53124","-96.91589","MX","30","Veracruz","424755","America/Mexico_City","es","MX"
"6050610","Laval","Laval","45.56995","-73.692","CA","10","Quebec","422993","America/Toronto","en","CA"
"3664980","Boa Vista","Boa Vista","2.81972","-60.67333","BR","25","Roraima","419652","America/Boa_Vista","pt","BR"
"3662574","Rio Branco","Rio Branco","-9.97472","-67.81","BR","01","Acre","419452","America/Rio_Branco","pt","BR"
"5378538","Oakland","Oakland","37.80437","-122.2708","US","CA","California","419267","America/Los_Angeles","en","US"
"4568127","San Juan","San Juan","18.46633","-66.10572","PR","127","San Juan","418140","America/Puerto_Rico","es","PR"
"3532497","Azcapotzalco","Azcapotzalco","19.48698","-99.18594","MX","09","Mexico City","414711","America/Mexico_City","es","MX"
"4553433","Tulsa","Tulsa","36.15398","-95.99277","US","OK","Oklahoma","413066","America/Chicago","en","US"
"3645532","Ciudad Bolívar","Ciudad Bolivar","8.12366","-63.54694","VE","06","Bolívar","412619","America/Caracas","es","VE"
"5037649","Minneapolis","Minneapolis","44.97997","-93.26384","US","MN","Minnesota","410939","America/Chicago","en","US"
"3981369","Tonalá","Tonala","20.62445","-103.23423","MX","14","Jalisco","408759","America/Mexico_City","es","MX"
"3703443","Panamá","Panama","8.9936","-79.51973","PA","08","Panamá","408168","America/Panama","es","PA"
"3514450","Xochimilco","Xochimilco","19.25465","-99.10356","MX","09","Mexico City","407885","America/Mexico_City","es","MX"
"3453643","Piracicaba","Piracicaba","-22.72528","-47.64917","BR","27","São Paulo","407252","America/Sao_Paulo","pt","BR"
"3451353","Ribeirão das Neves","Ribeirao das Neves","-19.76694","-44.08667","BR","15","Minas Gerais","406802","America/Sao_Paulo","pt","BR"
"3644768","Cumaná","Cumana","10.4639","-64.17859","VE","19","Sucre","405626","America/Caracas","es","VE"
"3899539","Antofagasta","Antofagasta","-23.65094","-70.39752","CL","03","Antofagasta","401096","America/Santiago","es","CL"
"3648546","Barinas","Barinas","8.62064","-70.23105","VE","05","Barinas","397279","America/Caracas","es","VE"
"4281730","Wichita","Wichita","37.69224","-97.33754","US","KS","Kansas","396119","America/Chicago","en","US"
"6159905","Surrey","Surrey","49.10635","-122.82509","CA","02","British Columbia","394976","America/Vancouver","en","CA"
"3445026","Vila Velha","Vila Velha","-20.32972","-40.2925","BR","08","Espírito Santo","394930","America/Sao_Paulo","pt","BR"
"3447779","Serra","Serra","-20.12861","-40.30778","BR","08","Espírito Santo","394153","America/Sao_Paulo","pt","BR"
"3688928","Bello","Bello","6.33732","-75.55795","CO","02","Antioquia","392939","America/Bogota","es","CO"
"3672778","Pasto","Pasto","1.21456","-77.27846","CO","20","Nariño","392930","America/Bogota","es","CO"
"3836277","Santa Fe","Santa Fe","-31.64881","-60.70868","AR","21","Santa Fe","391164","America/Argentina/Cordoba","es","AR"
"3464739","Diadema","Diadema","-23.68611","-46.62278","BR","27","São Paulo","390633","America/Sao_Paulo","pt","BR"
"4335045","New Orleans","New Orleans","29.95465","-90.07507","US","LA","Louisiana","389617","America/Chicago","en","US"
"4671240","Arlington","Arlington","32.73569","-97.10807","US","TX","Texas","388125","America/Chicago","en","US"
"5150529","Cleveland","Cleveland","41.4995","-81.69541","US","OH","Ohio","388072","America/New_York","en","US"
"3660689","Ambato","Ambato","-1.24908","-78.61675","EC","19","Tungurahua Province","387309","America/Guayaquil","es","EC"
"6957079","Benito Juárez","Benito Juarez","19.3727","-99.1564","MX","09","Mexico City","385439","America/Mexico_City","es","MX"
"4174757","Tampa","Tampa","27.94752","-82.45843","US","FL","Florida","384959","America/New_York","en","US"
"11962371","Grajaú","Grajau","-23.76979","-46.67112","BR","27","São Paulo","384373","America/Sao_Paulo","pt","BR"
"3526700","Iztacalco","Iztacalco","19.39528","-99.09778","MX","09","Mexico City","384326","America/Mexico_City","es","MX"
"3470044","Betim","Betim","-19.96778","-44.19833","BR","15","Minas Gerais","384000","America/Sao_Paulo","pt","BR"
"3726786","Delmas","Delmas","18.54478","-72.30036","HT","11","Ouest","382920","America/Port-au-Prince","fr","HT"
"3996322","Mazatlán","Mazatlan","23.22163","-106.41885","MX","25","Sinaloa","381583","America/Mazatlan","es","MX"
"3466537","Caxias do Sul","Caxias do Sul","-29.16806","-51.17944","BR","23","Rio Grande do Sul","381270","America/Sao_Paulo","pt","BR"
"4004330","Irapuato","Irapuato","20.67675","-101.35628","MX","11","Guanajuato","380941","America/Mexico_City","es","MX"
"3470279","Bauru","Bauru","-22.31472","-49.06056","BR","27","São Paulo","379297","America/Sao_Paulo","pt","BR"
"3696183","Iquitos","Iquitos","-3.74814","-73.2529","PE","16","Loreto","377609","America/Lima","es","PE"
"3448639","São José do Rio Preto","Sao Jose do Rio Preto","-20.81972","-49.37944","BR","27","São Paulo","374699","America/Sao_Paulo","pt","BR"
"3522551","Nuevo Laredo","Nuevo Laredo","27.47629","-99.51639","MX","28","Tamaulipas","373725","America/Matamoros","es","MX"
"5325738","Bakersfield","Bakersfield","35.37329","-119.01871","US","CA","California","373640","America/Los_Angeles","en","US"
"3827408","Miguel Hidalgo","Miguel Hidalgo","19.43411","-99.20024","MX","09","Mexico City","372889","America/Mexico_City","es","MX"
"3629672","Puerto La Cruz","Puerto La Cruz","10.21382","-64.6328","VE","02","Anzoátegui","370000","America/Caracas","es","VE"
"3393536","Olinda","Olinda","-8.00889","-34.85528","BR","30","Pernambuco","366754","America/Recife","pt","BR"
"5950268","Etobicoke","Etobicoke","43.64415","-79.56985","CA","08","Ontario","365000","America/Toronto","en","CA"
"3630297","Petare","Petare","10.47679","-66.80786","VE","15","Miranda","364684","America/Caracas","es","VE"
"3469968","Blumenau","Blumenau","-26.91944","-49.06611","BR","26","Santa Catarina","361855","America/Sao_Paulo","pt","BR"
"3466998","Carapicuíba","Carapicuiba","-23.52272","-46.835","BR","27","São Paulo","361112","America/Sao_Paulo","pt","BR"
"5412347","Aurora","Aurora","39.72943","-104.83192","US","CO","Colorado","359407","America/Denver","en","US"
"3463011","Franca","Franca","-20.53861","-47.40083","BR","27","São Paulo","358539","America/Sao_Paulo","pt","BR"
"3673899","Neiva","Neiva","2.93001","-75.27973","CO","16","Huila Department","357392","America/Bogota","es","CO"
"3980760","Uruapan","Uruapan","19.41116","-102.05644","MX","16","Michoacán","356786","America/Mexico_City","es","MX"
"3514519","Xico","Xico","19.27032","-98.95088","MX","15","México","356352","America/Mexico_City","es","MX"
"3827406","Benito Juarez","Benito Juarez","19.3984","-99.15766","MX","09","Mexico City","355017","America/Mexico_City","es","MX"
"3514670","Villahermosa","Villahermosa","17.98625","-92.93928","MX","27","Tabasco","353577","America/Merida","es","MX"
"4005867","Ciudad General Escobedo","Ciudad General Escobedo","25.79698","-100.31791","MX","19","Nuevo León","352444","America/Monterrey","es","MX"
"3647651","Cabimas","Cabimas","10.39907","-71.45206","VE","23","Zulia","351736","America/Caracas","es","VE"
"5856195","Honolulu","Honolulu","21.30694","-157.85833","US","HI","Hawaii","350964","Pacific/Honolulu","en","US"
"5323810","Anaheim","Anaheim","33.83529","-117.9145","US","CA","California","350742","America/Los_Angeles","en","US"
"3403642","Campina Grande","Campina Grande","-7.23056","-35.88111","BR","17","Paraíba","348936","America/Fortaleza","pt","BR"
"3566067","Camagüey","Camagueey","21.38083","-77.91694","CU","05","Camagüey","347562","America/Havana","es","CU"
"6058560","London","London","42.98339","-81.23304","CA","08","Ontario","346765","America/Toronto","en","CA"
"3435217","Corrientes","Corrientes","-27.46784","-58.8344","AR","06","Corrientes","346334","America/Argentina/Cordoba","es","AR"
"3625829","Turmero","Turmero","10.22856","-67.47421","VE","04","Aragua","344700","America/Caracas","es","VE"
"3667849","Soledad","Soledad","10.91843","-74.76459","CO","04","Atlántico","342556","America/Bogota","es","CO"
"4014875","Celaya","Celaya","20.52353","-100.8157","MX","11","Guanajuato","340387","America/Mexico_City","es","MX"
"4498303","West Raleigh","West Raleigh","35.78682","-78.66389","US","NC","North Carolina","338759","America/New_York","en","US"
"3529947","Cuernavaca","Cuernavaca","18.9261","-99.23075","MX","17","Morelos","338650","America/Mexico_City","es","MX"
"3460644","Itaquaquecetuba","Itaquaquecetuba","-23.48611","-46.34833","BR","27","São Paulo","336679","America/Sao_Paulo","pt","BR"
"5392900","Santa Ana","Santa Ana","33.74557","-117.86783","US","CA","California","335400","America/Los_Angeles","en","US"
"3621849","San José","San Jose","9.93388","-84.08489","CR","08","San José","335007","America/Costa_Rica","es","CR"
"3981941","Tepic","Tepic","21.50733","-104.89332","MX","18","Nayarit","332863","America/Mazatlan","es","MX"
"3456814","Montes Claros","Montes Claros","-16.735","-43.86167","BR","15","Minas Gerais","332379","America/Sao_Paulo","pt","BR"
"3530580","Ciudad Victoria","Ciudad Victoria","23.74061","-99.14364","MX","28","Tamaulipas","332100","America/Monterrey","es","MX"
"3982912","Soledad de Graciano Sánchez","Soledad de Graciano Sanchez","22.18912","-100.93792","MX","24","San Luis Potosí","332072","America/Mexico_City","es","MX"
"3583096","Soyapango","Soyapango","13.71024","-89.13989","SV","10","San Salvador Department","329708","America/El_Salvador","es","SV"
"6066513","Markham","Markham","43.86682","-79.2663","CA","08","Ontario","328966","America/Toronto","en","CA"
"3467467","Canoas","Canoas","-29.91778","-51.18361","BR","23","Rio Grande do Sul","328291","America/Sao_Paulo","pt","BR"
"4683416","Corpus Christi","Corpus Christi","27.80058","-97.39638","US","TX","Texas","326586","America/Chicago","en","US"
"3693345","Pucallpa","Pucallpa","-8.37915","-74.55387","PE","25","Ucayali","326040","America/Lima","es","PE"
"3457001","Mogi das Cruzes","Mogi das Cruzes","-23.52278","-46.18833","BR","27","São Paulo","325746","America/Sao_Paulo","pt","BR"
"3448136","São Vicente","Sao Vicente","-23.96306","-46.39194","BR","27","São Paulo","324457","America/Sao_Paulo","pt","BR"
"3461789","Guarujá","Guaruja","-23.99306","-46.25639","BR","27","São Paulo","322750","America/Sao_Paulo","pt","BR"
"5387877","Riverside","Riverside","33.95335","-117.39616","US","CA","California","322424","America/Los_Angeles","en","US"
"3526682","Ixtapaluca","Ixtapaluca","19.31556","-98.88284","MX","15","México","322271","America/Mexico_City","es","MX"
"3652941","Portoviejo","Portoviejo","-1.05764","-80.45145","EC","14","Manabí","321800","America/Guayaquil","es","EC"
"3665900","Villavicencio","Villavicencio","4.13238","-73.62564","CO","19","Meta Department","321717","America/Bogota","es","CO"
"3459462","Jundiaí","Jundiai","-23.18639","-46.88417","BR","27","São Paulo","321589","America/Sao_Paulo","pt","BR"
"3701329","San Miguelito","San Miguelito","9.05032","-79.47068","PA","08","Panamá","321501","America/Panama","es","PA"
"3454244","Pelotas","Pelotas","-31.76997","-52.34101","BR","23","Rio Grande do Sul","320674","America/Sao_Paulo","pt","BR"
"4297983","Lexington","Lexington","37.98869","-84.47772","US","KY","Kentucky","320347","America/New_York","en","US"
"3472287","Anápolis","Anapolis","-16.32667","-48.95278","BR","29","Goiás","319587","America/Sao_Paulo","pt","BR"
"3556969","Holguín","Holguin","20.88722","-76.26306","CU","12","Holguín Province","319102","America/Havana","es","CU"
"3671916","Popayán","Popayan","2.43823","-76.61316","CO","09","Cauca Department","318059","America/Bogota","es","CO"
"3446682","Taubaté","Taubate","-23.02639","-45.55528","BR","27","São Paulo","317915","America/Sao_Paulo","pt","BR"
"3698304","Chimbote","Chimbote","-9.07508","-78.59373","PE","02","Ancash","316966","America/Lima","es","PE"
"3658192","Eloy Alfaro","Eloy Alfaro","-2.16919","-79.83987","EC","10","Guayas","315724","America/Guayaquil","es","EC"
"4407066","St. Louis","St. Louis","38.62727","-90.19789","US","MO","Missouri","315685","America/Chicago","en","US"
"4297999","Lexington-Fayette","Lexington-Fayette","38.0498","-84.45855","US","KY","Kentucky","314488","America/New_York","en","US"
"3667905","Soacha","Soacha","4.57937","-74.21682","CO","33","Cundinamarca","313945","America/Bogota","es","CO"
"3444924","Vitória","Vitoria","-20.31944","-40.33778","BR","08","Espírito Santo","312656","America/Sao_Paulo","pt","BR"
"3673164","Palmira","Palmira","3.53944","-76.30361","CO","29","Valle del Cauca Department","312519","America/Bogota","es","CO"
"3457671","Maringá","Maringa","-23.42528","-51.93861","BR","18","Paraná","311724","America/Sao_Paulo","pt","BR"
"11962408","Jardim Angela","Jardim Angela","-23.71636","-46.76872","BR","27","São Paulo","311432","America/Sao_Paulo","pt","BR"
"4508722","Cincinnati","Cincinnati","39.12711","-84.51439","US","OH","Ohio","311097","America/New_York","en","US"
"3516355","Tampico","Tampico","22.28519","-97.87777","MX","28","Tamaulipas","309003","America/Monterrey","es","MX"
"4167147","Orlando","Orlando","28.53834","-81.37924","US","FL","Florida","307573","America/New_York","en","US"
"3474574","Palmas","Palmas","-10.16745","-48.32766","BR","31","Tocantins","306296","America/Araguaina","pt","BR"
"6173577","Vaughan","Vaughan","43.8361","-79.49827","CA","08","Ontario","306233","America/Toronto","en","CA"
"3718420","Port-de-Paix","Port-de-Paix","19.93984","-72.83037","HT","03","Nord-Ouest","306217","America/Port-au-Prince","fr","HT"
"3429886","Posadas","Posadas","-27.39184","-55.92379","AR","14","Misiones","305874","America/Argentina/Cordoba","es","AR"
"5399020","Stockton","Stockton","37.9577","-121.29078","US","CA","California","305658","America/Los_Angeles","en","US"
"3515463","Tláhuac","Tlahuac","19.28689","-99.00507","MX","09","Mexico City","305076","America/Mexico_City","es","MX"
"5206379","Pittsburgh","Pittsburgh","40.44062","-79.99589","US","PA","Pennsylvania","304391","America/New_York","en","US"
"3689560","Armenia","Armenia","4.53656","-75.67263","CO","23","Quindío Department","304314","America/Bogota","es","CO"
"5045360","Saint Paul","Saint Paul","44.94441","-93.09327","US","MN","Minnesota","303176","America/Chicago","en","US"
"3439101","Ciudad del Este","Ciudad del Este","-25.5036","-54.65067","PY","01","Alto Paraná Department","301815","America/Asuncion","es","PY"
"3632308","Mérida","Merida","8.57899","-71.16922","VE","14","Mérida","300000","America/Caracas","es","VE"
"3865086","Bahía Blanca","Bahia Blanca","-38.7176","-62.26545","AR","01","Buenos Aires","299101","America/Argentina/Buenos_Aires","es","AR"
"7281931","Okanagan","Okanagan","50.36386","-119.34997","CA","02","British Columbia","297601","America/Vancouver","en","CA"
"5072006","Lincoln","Lincoln","40.8","-96.66696","US","NE","Nebraska","294757","America/Chicago","en","US"
"3868121","Viña del Mar","Vina del Mar","-33.02457","-71.55183","CL","01","Valparaíso","294551","America/Santiago","es","CL"
"3453186","Ponta Grossa","Ponta Grossa","-25.095","-50.16194","BR","18","Paraná","292177","America/Sao_Paulo","pt","BR"
"5879400","Anchorage","Anchorage","61.21806","-149.90028","US","AK","Alaska","291247","America/Anchorage","en","US"
"3429577","Resistencia","Resistencia","-27.46363","-58.98665","AR","03","Chaco","290793","America/Argentina/Cordoba","es","AR"
"3392740","Paulista","Paulista","-7.94083","-34.87306","BR","30","Pernambuco","289971","America/Recife","pt","BR"
"3628473","San Cristóbal","San Cristobal","7.76593","-72.23576","VE","20","Táchira","289852","America/Caracas","es","VE"
"3458575","Limeira","Limeira","-22.56472","-47.40167","BR","27","São Paulo","289665","America/Sao_Paulo","pt","BR"
"6174041","Victoria","Victoria","48.4359","-123.35155","CA","02","British Columbia","289625","America/Vancouver","en","CA"
"3654533","Machala","Machala","-3.25886","-79.95876","EC","08","El Oro","289141","America/Guayaquil","es","EC"
"4300488","Meads","Meads","38.41258","-82.70905","US","KY","Kentucky","288649","America/New_York","en","US"
"4295940","Ironville","Ironville","38.45647","-82.69238","US","KY","Kentucky","288649","America/New_York","en","US"
"3928128","Tacna","Tacna","-18.01465","-70.25362","PE","23","Tacna","286240","America/Lima","es","PE"
"3447259","Sumaré","Sumare","-22.82194","-47.26694","BR","27","São Paulo","286211","America/Sao_Paulo","pt","BR"
"5505411","Henderson","Henderson","36.0397","-114.98194","US","NV","Nevada","285667","America/Los_Angeles","en","US"
"4469146","Greensboro","Greensboro","36.07264","-79.79198","US","NC","North Carolina","285342","America/New_York","en","US"
"3445156","Viamão","Viamao","-30.08111","-51.02333","BR","23","Rio Grande do Sul","285269","America/Sao_Paulo","pt","BR"
"3487903","Alto Barinas","Alto Barinas","8.5931","-70.2261","VE","05","Barinas","284289","America/Caracas","es","VE"
"3450083","Santa Maria","Santa Maria","-29.68417","-53.80694","BR","23","Rio Grande do Sul","283677","America/Sao_Paulo","pt","BR"
"4719457","Plano","Plano","33.01984","-96.69889","US","TX","Texas","283558","America/Chicago","en","US"
"3447212","Suzano","Suzano","-23.5425","-46.31083","BR","27","São Paulo","283314","America/Sao_Paulo","pt","BR"
"3719028","Pétionville","Petionville","18.5125","-72.28528","HT","11","Ouest","283052","America/Port-au-Prince","fr","HT"
"3868626","Valparaíso","Valparaiso","-33.036","-71.62963","CL","01","Valparaíso","282448","America/Santiago","es","CL"
"3938527","Ica","Ica","-14.07538","-75.73422","PE","11","Ica","282407","America/Lima","es","PE"
"5101798","Newark","Newark","40.73566","-74.17237","US","NJ","New Jersey","281944","America/New_York","en","US"
"3680450","Itagüí","Itaguei","6.18461","-75.59913","CO","02","Antioquia","281853","America/Bogota","es","CO"
"3522732","Nicolás Romero","Nicolas Romero","19.64177","-99.3068","MX","15","México","281799","America/Mexico_City","es","MX"
"5261457","Madison","Madison","43.07305","-89.40123","US","WI","Wisconsin","280305","America/Chicago","en","US"
"5174035","Toledo","Toledo","41.66394","-83.55521","US","OH","Ohio","279789","America/New_York","en","US"
"4006702","Ensenada","Ensenada","31.87149","-116.60071","MX","02","Baja California","279765","America/Tijuana","es","MX"
"3627047","Santa Teresa del Tuy","Santa Teresa del Tuy","10.23291","-66.66474","VE","15","Miranda","278890","America/Caracas","es","VE"
"6182962","Windsor","Windsor","42.30008","-83.01654","CA","08","Ontario","278013","America/Toronto","en","CA"
"3530569","Coacalco","Coacalco","19.62923","-99.10689","MX","15","México","277959","America/Mexico_City","es","MX"
"3667983","Sincelejo","Sincelejo","9.3045","-75.3905","CO","27","Sucre Department","277773","America/Bogota","es","CO"
"3402429","Caucaia","Caucaia","-3.73611","-38.65306","BR","06","Ceará","275019","America/Fortaleza","pt","BR"
"3654667","Loja","Loja","-3.99313","-79.20422","EC","12","Loja","274112","America/Guayaquil","es","EC"
"3988214","Salamanca","Salamanca","20.57196","-101.19154","MX","11","Guanajuato","273417","America/Mexico_City","es","MX"
"3557689","Guantánamo","Guantanamo","20.14444","-75.20917","CU","10","Guantánamo Province","272801","America/Havana","es","CU"
"3454031","Petrópolis","Petropolis","-22.505","-43.17861","BR","21","Rio de Janeiro","272691","America/Sao_Paulo","pt","BR"
"11962376","Capao Redondo","Capao Redondo","-23.66877","-46.78051","BR","27","São Paulo","270767","America/Sao_Paulo","pt","BR"
"3430697","Merlo","Merlo","-34.66536","-58.72744","AR","01","Buenos Aires","268961","America/Argentina/Buenos_Aires","es","AR"
"3984583","Santa Catarina","Santa Catarina","25.67325","-100.45813","MX","19","Nuevo León","268347","America/Monterrey","es","MX"
"3682385","Floridablanca","Floridablanca","7.06222","-73.08644","CO","26","Santander Department","267591","America/Bogota","es","CO"
"3392998","Parnamirim","Parnamirim","-5.91556","-35.26278","BR","22","Rio Grande do Norte","267036","America/Fortaleza","pt","BR"
"6318632","Sapopemba","Sapopemba","-23.59556","-46.52472","BR","27","São Paulo","266715","America/Sao_Paulo","pt","BR"
"5336899","Chula Vista","Chula Vista","32.64005","-117.0842","US","CA","California","265757","America/Los_Angeles","en","US"
"5099836","Jersey City","Jersey City","40.72816","-74.07764","US","NJ","New Jersey","264290","America/New_York","en","US"
"3654410","Manta","Manta","-0.94937","-80.73137","EC","14","Manabí","264281","America/Guayaquil","es","EC"
"3652350","Riobamba","Riobamba","-1.66506","-78.65887","EC","06","Chimborazo Province","264048","America/Guayaquil","es","EC"
"3429652","Quilmes","Quilmes","-34.72065","-58.25454","AR","01","Buenos Aires","262379","America/Argentina/Buenos_Aires","es","AR"
"11962429","Sacoma","Sacoma","-23.63083","-46.59817","BR","27","São Paulo","261436","America/Sao_Paulo","pt","BR"
"3445839","Uberaba","Uberaba","-19.74833","-47.93194","BR","15","Minas Gerais","260843","America/Sao_Paulo","pt","BR"
"5289282","Chandler","Chandler","33.30616","-111.84125","US","AZ","Arizona","260828","America/Phoenix","en","US"
"4920423","Fort Wayne","Fort Wayne","41.1306","-85.12886","US","IN","Indiana","260326","America/Indiana/Indianapolis","en","US"
"11962427","Jardim Sao Luis","Jardim Sao Luis","-23.68073","-46.7394","BR","27","São Paulo","259277","America/Sao_Paulo","pt","BR"
"3463030","Foz do Iguaçu","Foz do Iguacu","-25.54778","-54.58806","BR","18","Paraná","258248","America/Sao_Paulo","pt","BR"
"5110629","Buffalo","Buffalo","42.88645","-78.87837","US","NY","New York","258071","America/New_York","en","US"
"3836564","San Salvador de Jujuy","San Salvador de Jujuy","-24.1928","-65.29342","AR","10","Jujuy","257970","America/Argentina/Jujuy","es","AR"
"4464368","Durham","Durham","35.99403","-78.89862","US","NC","North Carolina","257636","America/New_York","en","US"
"4005775","Gómez Palacio","Gomez Palacio","25.56985","-103.49588","MX","10","Durango","257352","America/Monterrey","es","MX"
"3466779","Cascavel","Cascavel","-24.95583","-53.45528","BR","18","Paraná","257172","America/Sao_Paulo","pt","BR"
"4171563","St. Petersburg","St. Petersburg","27.77086","-82.67927","US","FL","Florida","257083","America/New_York","en","US"
"5359777","Irvine","Irvine","33.66946","-117.82311","US","CA","California","256927","America/Los_Angeles","en","US"
"5992996","Kitchener","Kitchener","43.42537","-80.5112","CA","08","Ontario","256885","America/Toronto","en","CA"
"3997479","Los Mochis","Los Mochis","25.79097","-108.99825","MX","25","Sinaloa","256613","America/Mazatlan","es","MX"
"3522210","Pachuca de Soto","Pachuca de Soto","20.11697","-98.73329","MX","13","Hidalgo","256584","America/Mexico_City","es","MX"
"3461311","Indaiatuba","Indaiatuba","-23.08842","-47.2119","BR","27","São Paulo","256223","America/Sao_Paulo","pt","BR"
"4705349","Laredo","Laredo","27.50641","-99.50754","US","TX","Texas","255473","America/Chicago","en","US"
"3522507","Oaxaca","Oaxaca","17.06025","-96.72544","MX","20","Oaxaca","255029","America/Mexico_City","es","MX"
"3456068","Novo Hamburgo","Novo Hamburgo","-29.67833","-51.13056","BR","23","Rio Grande do Sul","253841","America/Sao_Paulo","pt","BR"
"3465284","Cotia","Cotia","-23.60389","-46.91917","BR","27","São Paulo","253608","America/Sao_Paulo","pt","BR"
"3444914","Vitória da Conquista","Vitoria da Conquista","-14.86611","-40.83944","BR","05","Bahia","253137","America/Bahia","pt","BR"
"3870282","Talcahuano","Talcahuano","-36.72494","-73.11684","CL","06","Biobío","252968","America/Santiago","es","CL"
"3633622","Los Teques","Los Teques","10.34954","-67.04266","VE","15","Miranda","252242","America/Caracas","es","VE"
"3835869","Santiago del Estero","Santiago del Estero","-27.80047","-64.26285","AR","22","Santiago del Estero","252192","America/Argentina/Cordoba","es","AR"
"3470353","Barueri","Barueri","-23.51056","-46.87611","BR","27","São Paulo","251994","America/Sao_Paulo","pt","BR"
"3928245","Santiago de Surco","Santiago de Surco","-12.13588","-77.00742","PE","15","Lima region","251648","America/Lima","es","PE"
"3462315","Governador Valadares","Governador Valadares","-18.85111","-41.94944","BR","15","Minas Gerais","250878","America/Sao_Paulo","pt","BR"
"3537906","Santa Clara","Santa Clara","22.40711","-79.96581","CU","16","Villa Clara Province","250512","America/Havana","es","CU"
"4000900","La Paz","La Paz","24.14231","-110.31316","MX","03","Baja California Sur","250141","America/Mazatlan","es","MX"
"3452465","Praia Grande","Praia Grande","-24.00583","-46.40278","BR","27","São Paulo","250027","America/Sao_Paulo","pt","BR"
"7280708","Colonia del Valle","Colonia del Valle","19.38611","-99.16204","MX","09","Mexico City","250000","America/Mexico_City","es","MX"
"3872348","San Bernardo","San Bernardo","-33.59217","-70.6996","CL","12","Santiago Metropolitan","249858","America/Santiago","es","CL"
"3445451","Várzea Grande","Varzea Grande","-15.64667","-56.1325","BR","14","Mato Grosso","249752","America/Cuiaba","pt","BR"
"3444876","Volta Redonda","Volta Redonda","-22.52306","-44.10417","BR","21","Rio de Janeiro","249580","America/Sao_Paulo","pt","BR"
"11962392","Cidade Ademar","Cidade Ademar","-23.67379","-46.65681","BR","27","São Paulo","249218","America/Sao_Paulo","pt","BR"
"5525577","Lubbock","Lubbock","33.57786","-101.85517","US","TX","Texas","249042","America/Chicago","en","US"
"3516109","Tehuacán","Tehuacan","18.46422","-97.39735","MX","21","Puebla","248716","America/Mexico_City","es","MX"
"3640049","Guarenas","Guarenas","10.47027","-66.61934","VE","15","Miranda","248588","America/Caracas","es","VE"
"5295903","Gilbert","Gilbert","33.35283","-111.78903","US","AZ","Arizona","247542","America/Phoenix","en","US"
"3841956","Paraná","Parana","-31.73271","-60.52897","AR","08","Entre Rios","247139","America/Argentina/Cordoba","es","AR"
"3583446","San Miguel","San Miguel","13.48261","-88.18211","SV","09","San Miguel Department","247126","America/El_Salvador","es","SV"
"3645213","Coro","Coro","11.40769","-69.67822","VE","11","Falcón","246657","America/Caracas","es","VE"
"3472343","Americana","Americana","-22.73917","-47.33139","BR","27","São Paulo","246655","America/Sao_Paulo","pt","BR"
"3465927","Colombo","Colombo","-25.29167","-49.22417","BR","18","Paraná","246540","America/Sao_Paulo","pt","BR"
"4776222","Norfolk","Norfolk","36.84681","-76.28522","US","VA","Virginia","246393","America/New_York","en","US"
"3874960","Puerto Montt","Puerto Montt","-41.4693","-72.94237","CL","14","Los Lagos Region","245902","America/Santiago","es","CL"
"3937513","Juliaca","Juliaca","-15.5","-70.13333","PE","21","Puno","245675","America/Lima","es","PE"
"3625542","Valera","Valera","9.31778","-70.60361","VE","21","Trujillo","244708","America/Caracas","es","VE"
"3648439","Baruta","Baruta","10.43424","-66.87558","VE","15","Miranda","244216","America/Caracas","es","VE"
"7289169","Tri-Cities","Tri-Cities","46.2454","-119.19617","US","WA","Washington","244036","America/Los_Angeles","en","US"
"3450144","Santa Luzia","Santa Luzia","-19.76972","-43.85139","BR","15","Minas Gerais","243503","America/Sao_Paulo","pt","BR"
"11962395","Brasilandia","Brasilandia","-23.44859","-46.68839","BR","27","São Paulo","243273","America/Sao_Paulo","pt","BR"
"3827598","Ojo de Agua","Ojo de Agua","19.68028","-99.01","MX","15","México","242272","America/Mexico_City","es","MX"
"5959974","Gatineau","Gatineau","45.47723","-75.70164","CA","10","Quebec","242124","America/Toronto","en","CA"
"3899361","Arica","Arica","-18.47552","-70.30058","CL","16","Arica y Parinacota Region","241653","America/Santiago","es","CL"
"5511077","Reno","Reno","39.52963","-119.8138","US","NV","Nevada","241445","America/Los_Angeles","en","US"
"4499612","Winston-Salem","Winston-Salem","36.09986","-80.24422","US","NC","North Carolina","241218","America/New_York","en","US"
"3460718","Itapevi","Itapevi","-23.54889","-46.93417","BR","27","São Paulo","240961","America/Sao_Paulo","pt","BR"
"3457692","Marília","Marilia","-22.21389","-49.94583","BR","27","São Paulo","240590","America/Sao_Paulo","pt","BR"
"3688451","Buenaventura","Buenaventura","3.8801","-77.03116","CO","29","Valle del Cauca Department","240387","America/Bogota","es","CO"
"3645527","Ciudad Ojeda","Ciudad Ojeda","10.20161","-71.3148","VE","23","Zulia","240283","America/Caracas","es","VE"
"5295985","Glendale","Glendale","33.53865","-112.18599","US","AZ","Arizona","240126","America/Phoenix","en","US"
"3569175","Almendares","Almendares","23.11012","-82.42322","CU","02","Havana","240000","America/Havana","es","CU"
"3462089","Gravataí","Gravatai","-29.94218","-50.99278","BR","23","Rio Grande do Sul","238778","America/Sao_Paulo","pt","BR"
"3523760","Magdalena Contreras","Magdalena Contreras","19.33212","-99.21118","MX","09","Mexico City","238431","America/Mexico_City","es","MX"
"3870011","Temuco","Temuco","-38.73628","-72.59738","CL","04","Araucanía","238129","America/Santiago","es","CL"
"4158476","Hialeah","Hialeah","25.8576","-80.27811","US","FL","Florida","237069","America/New_York","en","US"
"4693003","Garland","Garland","32.91262","-96.63888","US","TX","Texas","236897","America/Chicago","en","US"
"5313457","Scottsdale","Scottsdale","33.50921","-111.89903","US","AZ","Arizona","236839","America/Phoenix","en","US"
"4700168","Irving","Irving","32.81402","-96.94889","US","TX","Texas","236607","America/Chicago","en","US"
"3467727","Campo Limpo de Goiás","Campo Limpo de Goias","-16.29345","-49.09083","BR","29","Goiás","236162","America/Sao_Paulo","pt","BR"
"3530517","Coatzacoalcos","Coatzacoalcos","18.14905","-94.4447","MX","30","Veracruz","235983","America/Mexico_City","es","MX"
"5586437","Boise","Boise","43.6135","-116.20345","US","ID","Idaho","235684","America/Boise","en","US"
"4752186","Chesapeake","Chesapeake","36.81904","-76.27494","US","VA","Virginia","235429","America/New_York","en","US"
"3402655","Caruaru","Caruaru","-8.28333","-35.97611","BR","30","Pernambuco","235371","America/Recife","pt","BR"
"3378644","Georgetown","Georgetown","6.80448","-58.15527","GY","12","Demerara-Mahaica","235017","America/Guyana","en","GY"
"5509403","North Las Vegas","North Las Vegas","36.19886","-115.1175","US","NV","Nevada","234807","America/Los_Angeles","en","US"
"3461655","Hortolândia","Hortolandia","-22.85833","-47.22","BR","27","São Paulo","234259","America/Sao_Paulo","pt","BR"
"5350734","Fremont","Fremont","37.54827","-121.98857","US","CA","California","232206","America/Los_Angeles","en","US"
"3843123","Neuquén","Neuquen","-38.95078","-68.0592","AR","15","Neuquen","231198","America/Argentina/Salta","es","AR"
"12076997","José C. Paz","Jose C. Paz","-34.51541","-58.76813","AR","01","Buenos Aires","230208","America/Argentina/Buenos_Aires","es","AR"
"3451055","Rio Verde","Rio Verde","-17.79806","-50.92806","BR","29","Goiás","229651","America/Sao_Paulo","pt","BR"
"6059891","Longueuil","Longueuil","45.5152","-73.46818","CA","10","Quebec","229330","America/Toronto","en","CA"
"3805673","San Fernando de Apure","San Fernando de Apure","7.88963","-67.47181","VE","03","Apure","229197","America/Caracas","es","VE"
"3727135","Croix-des-Bouquets","Croix-des-Bouquets","18.57677","-72.22625","HT","11","Ouest","229127","America/Port-au-Prince","fr","HT"
"3461144","Ipatinga","Ipatinga","-19.46833","-42.53667","BR","15","Minas Gerais","228746","America/Sao_Paulo","pt","BR"
"3571824","Nassau","Nassau","25.05823","-77.34306","BS","23","New Providence","227940","America/Nassau","en","BS"
"3437056","San Lorenzo","San Lorenzo","-25.33968","-57.50879","PY","06","Central Department","227876","America/Asuncion","es","PY"
"3639898","Guatire","Guatire","10.474","-66.54241","VE","15","Miranda","227666","America/Caracas","es","VE"
"4315588","Baton Rouge","Baton Rouge","30.44332","-91.18747","US","LA","Louisiana","227470","America/Chicago","en","US"
"6956648","Diez de Octubre","Diez de Octubre","23.0881","-82.3597","CU","02","Havana","227293","America/Havana","es","CU"
"5142036","Upper West Side","Upper West Side","40.78705","-73.97542","US","NY","New York","226989","America/New_York","en","US"
"4781708","Richmond","Richmond","37.55376","-77.46026","US","VA","Virginia","226610","America/New_York","en","US"
"3397147","Juazeiro do Norte","Juazeiro do Norte","-7.21306","-39.31528","BR","06","Ceará","225230","America/Fortaleza","pt","BR"
"3903987","Sucre","Sucre","-19.03332","-65.26274","BO","01","Chuquisaca Department","224838","America/La_Paz","es","BO"
"3383330","Paramaribo","Paramaribo","5.86638","-55.16682","SR","16","Paramaribo District","223757","America/Paramaribo","nl","SR"
"3893894","Concepción","Concepcion","-36.82699","-73.04977","CL","06","Biobío","223574","America/Santiago","es","CL"
"5509952","Paradise","Paradise","36.09719","-115.14666","US","NV","Nevada","223167","America/Los_Angeles","en","US"
"3641351","El Tigre","El Tigre","8.88902","-64.2527","VE","02","Anzoátegui","222450","America/Caracas","es","VE"
"3433899","Formosa","Formosa","-26.18489","-58.17313","AR","09","Formosa","222226","America/Argentina/Cordoba","es","AR"
"3608248","La Ceiba","La Ceiba","15.75971","-86.78221","HN","01","Atlántida Department","222055","America/Tegucigalpa","es","HN"
"3464305","Embu das Artes","Embu das Artes","-23.64889","-46.85222","BR","27","São Paulo","221733","America/Sao_Paulo","pt","BR"
"3666645","Tuluá","Tulua","4.08466","-76.19536","CO","29","Valle del Cauca Department","221684","America/Bogota","es","CO"
"3655673","Ibarra","Ibarra","0.34881","-78.12462","EC","11","Imbabura","221149","America/Guayaquil","es","EC"
"3531732","Campeche","Campeche","19.84073","-90.51676","MX","04","Campeche","220389","America/Merida","es","MX"
"3657990","Esmeraldas","Esmeraldas","0.9592","-79.65397","EC","09","Esmeraldas","218727","America/Guayaquil","es","EC"
"3398269","Imperatriz","Imperatriz","-5.52639","-47.49167","BR","13","Maranhão","218106","America/Fortaleza","pt","BR"
"3493032","San Pedro de Macorís","San Pedro de Macoris","18.4539","-69.30864","DO","24","San Pedro de Macorís","217899","America/Santo_Domingo","es","DO"
"5122520","Jamaica","Jamaica","40.69149","-73.80569","US","NY","New York","216866","America/New_York","en","US"
"3629965","Porlamar","Porlamar","10.95771","-63.86971","VE","17","Nueva Esparta","216234","America/Caracas","es","VE"
"5391710","San Bernardino","San Bernardino","34.10834","-117.28977","US","CA","California","216108","America/Los_Angeles","en","US"
"5780993","Salt Lake City","Salt Lake City","40.76078","-111.89105","US","UT","Utah","215548","America/Denver","en","US"
"3995523","Monclova","Monclova","26.90687","-101.42056","MX","07","Coahuila","215271","America/Monterrey","es","MX"
"4068590","Huntsville","Huntsville","34.7304","-86.58594","US","AL","Alabama","215006","America/Chicago","en","US"
"4005509","Guadalupe","Guadalupe","22.74753","-102.51874","MX","32","Zacatecas","215000","America/Mexico_City","es","MX"
"11962390","Jabaquara","Jabaquara","-23.65055","-46.64591","BR","27","São Paulo","214958","America/Sao_Paulo","pt","BR"
"3447186","Taboão da Serra","Taboao da Serra","-23.62611","-46.79167","BR","27","São Paulo","214523","America/Sao_Paulo","pt","BR"
"4853828","Des Moines","Des Moines","41.60054","-93.60911","US","IA","Iowa","214133","America/Chicago","en","US"
"3652567","Quevedo","Quevedo","-1.02881","-79.46264","EC","13","Los Ríos","213842","America/Guayaquil","es","EC"
"5811696","Spokane","Spokane","47.65966","-117.42908","US","WA","Washington","213272","America/Los_Angeles","en","US"
"3460370","Jacareí","Jacarei","-23.30528","-45.96583","BR","27","São Paulo","213110","America/Sao_Paulo","pt","BR"
"5349755","Fontana","Fontana","34.09223","-117.43505","US","CA","California","212704","America/Los_Angeles","en","US"
"3873775","Rancagua","Rancagua","-34.1691","-70.74053","CL","08","O'Higgins Region","212695","America/Santiago","es","CL"
"4004886","Nogales","Nogales","31.30862","-110.94217","MX","26","Sonora","212533","America/Hermosillo","es","MX"
"4049979","Birmingham","Birmingham","33.52066","-86.80249","US","AL","Alabama","212461","America/Chicago","en","US"
"3598119","Cobán","Coban","15.47025","-90.37455","GT","01","Alta Verapaz","212047","America/Guatemala","es","GT"
"3460103","Jaraguá","Jaragua","-23.44077","-46.73774","BR","27","São Paulo","211610","America/Sao_Paulo","pt","BR"
"5373900","Modesto","Modesto","37.6391","-120.99688","US","CA","California","211266","America/Los_Angeles","en","US"
"3460634","Itaquera","Itaquera","-23.53194","-46.44417","BR","27","São Paulo","210960","America/Sao_Paulo","pt","BR"
"3568342","Arroyo Naranjo","Arroyo Naranjo","23.03811","-82.37703","CU","02","Havana","210053","America/Havana","es","CU"
"5134086","Rochester","Rochester","43.15478","-77.61556","US","NY","New York","209802","America/New_York","en","US"
"3452324","Presidente Prudente","Presidente Prudente","-22.12556","-51.38889","BR","27","São Paulo","209502","America/Sao_Paulo","pt","BR"
"3448622","São Leopoldo","Sao Leopoldo","-29.76028","-51.14722","BR","23","Rio Grande do Sul","209229","America/Sao_Paulo","pt","BR"
"3909234","Oruro","Oruro","-17.97153","-67.0932","BO","05","Oruro","208684","America/La_Paz","es","BO"
"3500957","La Romana","La Romana","18.42332","-68.96635","DO","12","La Romana","208437","America/Santo_Domingo","es","DO"
"5303929","Maryvale","Maryvale","33.50199","-112.17765","US","AZ","Arizona","208189","America/Phoenix","en","US"
"5812944","Tacoma","Tacoma","47.25288","-122.44429","US","WA","Washington","207948","America/Los_Angeles","en","US"
"4744709","Arlington","Arlington","38.88101","-77.10428","US","VA","Virginia","207627","America/New_York","en","US"
"5380184","Oxnard","Oxnard","34.1975","-119.17705","US","CA","California","207254","America/Los_Angeles","en","US"
"4188985","Columbus","Columbus","32.46098","-84.98771","US","GA","Georgia","206922","America/New_York","en","US"
"3547932","Mantilla","Mantilla","23.06794","-82.34143","CU","02","Havana","206918","America/Havana","es","CU"
"3685095","Dosquebradas","Dosquebradas","4.83916","-75.66727","CO","24","Risaralda Department","206693","America/Bogota","es","CO"
"4956184","Worcester","Worcester","42.26259","-71.80229","US","MA","Massachusetts","206518","America/New_York","en","US"
"3628423","San Felipe","San Felipe","10.3401","-68.74297","VE","22","Yaracuy","206270","America/Caracas","es","VE"
"3827606","Buenavista","Buenavista","19.60833","-99.16944","MX","15","México","206081","America/Mexico_City","es","MX"
"3460949","Itabuna","Itabuna","-14.78556","-39.28028","BR","05","Bahia","205660","America/Bahia","pt","BR"
"3654870","Latacunga","Latacunga","-0.93424","-78.6152","EC","07","Cotopaxi","205624","America/Guayaquil","es","EC"
"6317317","Itaim Paulista","Itaim Paulista","-23.50308","-46.38566","BR","27","São Paulo","205295","America/Sao_Paulo","pt","BR"
"3449319","São Carlos","Sao Carlos","-22.0175","-47.89083","BR","27","São Paulo","205035","America/Sao_Paulo","pt","BR"
"5374732","Moreno Valley","Moreno Valley","33.93752","-117.23059","US","CA","California","204198","America/Los_Angeles","en","US"
"3550598","Las Tunas","Las Tunas","20.96135","-76.95192","CU","13","Las Tunas Province","203684","America/Havana","es","CU"
"4562831","Bayamón","Bayamon","18.39856","-66.15572","PR","021","Bayamón","203499","America/Puerto_Rico","es","PR"
"3991328","Puerto Vallarta","Puerto Vallarta","20.617","-105.23018","MX","14","Jalisco","203342","America/Mexico_City","es","MX"
"5911606","Burnaby","Burnaby","49.26636","-122.95263","CA","02","British Columbia","202799","America/Vancouver","en","CA"
"3516266","Tapachula","Tapachula","14.90541","-92.25891","MX","05","Chiapas","202672","America/Merida","es","MX"
"4119403","Little Rock","Little Rock","34.74648","-92.28959","US","AR","Arkansas","202591","America/Chicago","en","US"
"3394682","Mossoró","Mossoro","-5.1875","-37.34417","BR","22","Rio Grande do Norte","202005","America/Fortaleza","pt","BR"
"4466033","Fayetteville","Fayetteville","35.05266","-78.87836","US","NC","North Carolina","201963","America/New_York","en","US"
"5358705","Huntington Beach","Huntington Beach","33.6603","-117.99923","US","CA","California","201899","America/Los_Angeles","en","US"
"4174715","Tallahassee","Tallahassee","30.43826","-84.28073","US","FL","Florida","201731","America/New_York","en","US"
"3447624","Sete Lagoas","Sete Lagoas","-19.46583","-44.24667","BR","15","Minas Gerais","201334","America/Sao_Paulo","pt","BR"
"3699088","Cajamarca","Cajamarca","-7.16378","-78.50027","PE","06","Cajamarca Department","201329","America/Lima","es","PE"
"7281017","La Pintana","La Pintana","-33.58331","-70.63419","CL","12","Santiago Metropolitan","201178","America/Santiago","es","CL"
"5145215","Yonkers","Yonkers","40.93121","-73.89875","US","NY","New York","201116","America/New_York","en","US"
"5352423","Glendale","Glendale","34.14251","-118.25508","US","CA","California","201020","America/Los_Angeles","en","US"
"4883817","Aurora","Aurora","41.76058","-88.32007","US","IL","Illinois","200661","America/Chicago","en","US"
"3448742","São José","Sao Jose","-28.21344","-49.16383","BR","26","Santa Catarina","200000","America/Sao_Paulo","pt","BR"
"7602078","Ladner","Ladner","49.08938","-123.08241","CA","02","British Columbia","200000","America/Vancouver","en","CA"
"3887127","Iquique","Iquique","-20.21326","-70.15027","CL","15","Tarapacá","199587","America/Santiago","es","CL"
"6141256","Saskatoon","Saskatoon","52.13238","-106.66892","CA","11","Saskatchewan","198958","America/Regina","en","CA"
"3640465","Guacara","Guacara","10.22609","-67.877","VE","07","Carabobo","198883","America/Caracas","es","VE"
"5516233","Amarillo","Amarillo","35.222","-101.8313","US","TX","Texas","198645","America/Chicago","en","US"
"3439214","Capiatá","Capiata","-25.3552","-57.44545","PY","06","Central Department","198553","America/Asuncion","es","PY"
"6122085","Richmond","Richmond","49.17003","-123.13683","CA","02","British Columbia","198309","America/Vancouver","en","CA"
"5145476","Akron","Akron","41.08144","-81.51901","US","OH","Ohio","197542","America/New_York","en","US"
"3870294","Talca","Talca","-35.4232","-71.64974","CL","11","Maule Region","197479","America/Santiago","es","CL"
"3530594","Ciudad Madero","Ciudad Madero","22.2475","-97.83665","MX","28","Tamaulipas","197216","America/Monterrey","es","MX"
"4341513","Shreveport","Shreveport","32.52515","-93.75018","US","LA","Louisiana","197204","America/Chicago","en","US"
"3696417","Huánuco","Huanuco","-9.92882","-76.23989","PE","10","Huánuco Department","196627","America/Lima","es","PE"
"3446194","Tremembé","Tremembe","-22.95833","-45.54944","BR","27","São Paulo","196563","America/Sao_Paulo","pt","BR"
"6317872","Parauapebas","Parauapebas","-6.0675","-49.90222","BR","16","Pará","196259","America/Belem","pt","BR"
"3432043","La Plata","La Plata","-34.92126","-57.95442","AR","01","Buenos Aires","195443","America/Argentina/Buenos_Aires","es","AR"
"4076784","Montgomery","Montgomery","32.36681","-86.29997","US","AL","Alabama","195287","America/Chicago","en","US"
"4994358","Grand Rapids","Grand Rapids","42.96336","-85.66809","US","MI","Michigan","195097","America/Detroit","en","US"
"6122091","Richmond Hill","Richmond Hill","43.87111","-79.43725","CA","08","Ontario","195022","America/Toronto","en","CA"
"3392242","Petrolina","Petrolina","-9.39861","-40.50083","BR","30","Pernambuco","194650","America/Recife","pt","BR"
"4076598","Mobile","Mobile","30.69436","-88.04305","US","AL","Alabama","194288","America/Chicago","en","US"
"3464688","Divinópolis","Divinopolis","-20.14355","-44.89065","BR","15","Minas Gerais","193832","America/Sao_Paulo","pt","BR"
"6092122","Oakville","Oakville","43.45011","-79.68292","CA","08","Ontario","193832","America/Toronto","en","CA"
"3395473","Maracanaú","Maracanau","-3.87667","-38.62556","BR","06","Ceará","193529","America/Fortaleza","pt","BR"
"3567597","Bayamo","Bayamo","20.37368","-76.64272","CU","09","Granma Province","192632","America/Havana","es","CU"
"11962424","Cidade Tiradentes","Cidade Tiradentes","-23.58481","-46.40084","BR","27","São Paulo","192177","America/Sao_Paulo","pt","BR"
"3689169","Barrancabermeja","Barrancabermeja","7.06528","-73.85472","CO","26","Santander Department","191403","America/Bogota","es","CO"
"3456166","Nova Friburgo","Nova Friburgo","-22.28194","-42.53111","BR","21","Rio de Janeiro","191158","America/Sao_Paulo","pt","BR"
"5308480","Peoria","Peoria","33.5806","-112.23738","US","AZ","Arizona","190985","America/Phoenix","en","US"
"5224151","Providence","Providence","41.82399","-71.41283","US","RI","Rhode Island","190934","America/New_York","en","US"
"11184422","Planaltina","Planaltina","-15.61791","-47.64874","BR","07","Federal District","189412","America/Sao_Paulo","pt","BR"
"5513343","Sunrise Manor","Sunrise Manor","36.21108","-115.07306","US","NV","Nevada","189372","America/Los_Angeles","en","US"
"3389353","Santarém","Santarem","-2.44306","-54.70833","BR","16","Pará","189047","America/Santarem","pt","BR"
"3468031","Camaçari","Camacari","-12.6975","-38.32417","BR","05","Bahia","188758","America/Bahia","pt","BR"
"6956647","Boyeros","Boyeros","23.0072","-82.4017","CU","02","Havana","188593","America/Havana","es","CU"
"3649833","Acarigua","Acarigua","9.55451","-69.19564","VE","18","Portuguesa","188278","America/Caracas","es","VE"
"3670745","Riohacha","Riohacha","11.54444","-72.90722","CO","17","La Guajira Department","188014","America/Bogota","es","CO"
"3450404","Santa Bárbara d'Oeste","Santa Barbara d'Oeste","-22.75361","-47.41361","BR","27","São Paulo","188000","America/Sao_Paulo","pt","BR"
"3451138","Rio Grande","Rio Grande","-32.035","-52.09861","BR","23","Rio Grande do Sul","187838","America/Sao_Paulo","pt","BR"
"4694482","Grand Prairie","Grand Prairie","32.74596","-96.99778","US","TX","Texas","187809","America/Chicago","en","US"
"3530870","Chilpancingo","Chilpancingo","17.55228","-99.50124","MX","12","Guerrero","187251","America/Mexico_City","es","MX"
"3468376","Cachoeiro de Itapemirim","Cachoeiro de Itapemirim","-20.84889","-41.11278","BR","08","Espírito Santo","187019","America/Sao_Paulo","pt","BR"
"3544091","Pinar del Río","Pinar del Rio","22.41649","-83.69657","CU","01","Pinar del Río","186990","America/Havana","es","CU"
"3564124","Cienfuegos","Cienfuegos","22.14681","-80.4481","CU","08","Cienfuegos Province","186644","America/Havana","es","CU"
"4276873","Overland Park","Overland Park","38.98223","-94.67079","US","KS","Kansas","186515","America/Chicago","en","US"
"4634946","Knoxville","Knoxville","35.96064","-83.92074","US","TN","Tennessee","185291","America/New_York","en","US"
"3521168","Poza Rica de Hidalgo","Poza Rica de Hidalgo","20.53315","-97.45946","MX","30","Veracruz","185242","America/Mexico_City","es","MX"
"12157007","Santa Anita - Los Ficus","Santa Anita - Los Ficus","-12.05048","-76.97335","PE","15","Lima region","184614","America/Lima","es","PE"
"4676740","Brownsville","Brownsville","25.90175","-97.49748","US","TX","Texas","183887","America/Chicago","en","US"
"5911592","Burlington","Burlington","43.38621","-79.83713","CA","08","Ontario","183314","America/Toronto","en","CA"
"3644918","Cúa","Cua","10.16245","-66.88248","VE","15","Miranda","182558","America/Caracas","es","VE"
"3460950","Itaboraí","Itaborai","-22.74444","-42.85944","BR","21","Rio de Janeiro","182498","America/Sao_Paulo","pt","BR"
"11962375","Cidade Dutra","Cidade Dutra","-23.72576","-46.7024","BR","27","São Paulo","182459","America/Sao_Paulo","pt","BR"
"4776024","Newport News","Newport News","36.98038","-76.42975","US","VA","Virginia","182385","America/New_York","en","US"
"5393049","Santa Clarita","Santa Clarita","34.39166","-118.54259","US","CA","California","182371","America/Los_Angeles","en","US"
"3649017","Araure","Araure","9.58144","-69.23851","VE","18","Portuguesa","181820","America/Caracas","es","VE"
"4612862","Chattanooga","Chattanooga","35.04563","-85.30968","US","TN","Tennessee","181099","America/New_York","en","US"
"3906194","Sacaba","Sacaba","-17.39799","-66.03825","BO","02","Cochabamba","180726","America/La_Paz","es","BO"
"3590979","Quetzaltenango","Quetzaltenango","14.84462","-91.52316","GT","13","Quetzaltenango","180706","America/Guatemala","es","GT"
"3436043","Berazategui","Berazategui","-34.76531","-58.21278","AR","01","Buenos Aires","180523","America/Argentina/Buenos_Aires","es","AR"
"3451234","Rio Claro","Rio Claro","-22.41139","-47.56139","BR","27","São Paulo","180147","America/Sao_Paulo","pt","BR"
"6087029","Nepean","Nepean","45.33619","-75.7225","CA","08","Ontario","180000","America/Toronto","en","CA"
"7614932","Pirituba","Pirituba","-23.48982","-46.7322","BR","27","São Paulo","179724","America/Sao_Paulo","pt","BR"
"3454857","Passo Fundo","Passo Fundo","-28.26278","-52.40667","BR","23","Rio Grande do Sul","179529","America/Sao_Paulo","pt","BR"
"3848950","La Rioja","La Rioja","-29.41328","-66.85637","AR","12","La Rioja","178872","America/Argentina/La_Rioja","es","AR"
"3558729","Fontanar","Fontanar","23.02389","-82.408","CU","02","Havana","178601","America/Havana","es","CU"
"4155966","Fort Lauderdale","Fort Lauderdale","26.12231","-80.14338","US","FL","Florida","178590","America/New_York","en","US"
"5115843","East Flatbush","East Flatbush","40.65371","-73.93042","US","NY","New York","178464","America/New_York","en","US"
"5512909","Spring Valley","Spring Valley","36.10803","-115.245","US","NV","Nevada","178395","America/Los_Angeles","en","US"
"3746181","Ciudad Camilo Cienfuegos","Ciudad Camilo Cienfuegos","23.16076","-82.32798","CU","02","Havana","178041","America/Havana","es","CU"
"3985604","San Luis Río Colorado","San Luis Rio Colorado","32.4555","-114.77037","MX","26","Sonora","176685","America/Hermosillo","es","MX"
"3583334","Santa Ana","Santa Ana","13.98827","-89.55685","SV","11","Santa Ana Department","176661","America/El_Salvador","es","SV"
"6119109","Regina","Regina","50.45008","-104.6178","CA","11","Saskatchewan","176183","America/Regina","en","CA"
"5317058","Tempe","Tempe","33.41477","-111.90931","US","AZ","Arizona","175826","America/Phoenix","en","US"
"5378771","Oceanside","Oceanside","33.19587","-117.37948","US","CA","California","175691","America/Los_Angeles","en","US"
"3511550","Bella Vista","Bella Vista","18.45539","-69.9454","DO","34","Nacional","175683","America/Santo_Domingo","es","DO"
"5750162","Salem","Salem","44.9429","-123.0351","US","OR","Oregon","175535","America/Los_Angeles","en","US"
"5351515","Garden Grove","Garden Grove","33.77391","-117.94145","US","CA","California","175393","America/Los_Angeles","en","US"
"3455478","Palhoça","Palhoca","-27.64528","-48.66778","BR","26","Santa Catarina","175272","America/Sao_Paulo","pt","BR"
"5385955","Rancho Cucamonga","Rancho Cucamonga","34.1064","-117.59311","US","CA","California","175236","America/Los_Angeles","en","US"
"4149962","Cape Coral","Cape Coral","26.56285","-81.94953","US","FL","Florida","175229","America/New_York","en","US"
"5393287","Santa Rosa","Santa Rosa","38.44047","-122.71443","US","CA","California","174972","America/Los_Angeles","en","US"
"3629706","Puerto Cabello","Puerto Cabello","10.47306","-68.0125","VE","07","Carabobo","174000","America/Caracas","es","VE"
"3658501","Daule","Daule","-1.86032","-79.97683","EC","10","Guayas","173684","America/Guayaquil","es","EC"
"5115985","East New York","East New York","40.66677","-73.88236","US","NY","New York","173198","America/New_York","en","US"
"3530937","Chicoloapan","Chicoloapan","19.41687","-98.90202","MX","15","México","172919","America/Mexico_City","es","MX"
"5814616","Vancouver","Vancouver","45.63873","-122.66149","US","WA","Washington","172860","America/Los_Angeles","en","US"
"3666608","Tunja","Tunja","5.54481","-73.35756","CO","36","Boyacá","172548","America/Bogota","es","CO"
"3906791","Quillacollo","Quillacollo","-17.39228","-66.27838","BO","02","Cochabamba","172405","America/La_Paz","es","BO"
"3462980","Francisco Morato","Francisco Morato","-23.28167","-46.74528","BR","27","São Paulo","171790","America/Sao_Paulo","pt","BR"
"5231851","Sioux Falls","Sioux Falls","43.54997","-96.70033","US","SD","South Dakota","171544","America/Chicago","en","US"
"5379439","Ontario","Ontario","34.06334","-117.65089","US","CA","California","171214","America/Los_Angeles","en","US"
"4563243","Carolina","Carolina","18.38078","-65.95739","PR","031","Carolina","170404","America/Puerto_Rico","es","PR"
"4409896","Springfield","Springfield","37.21533","-93.29824","US","MO","Missouri","170188","America/Chicago","en","US"
"3471859","Araçatuba","Aracatuba","-21.20889","-50.43278","BR","27","São Paulo","170024","America/Sao_Paulo","pt","BR"
"3837056","San Luis","San Luis","-33.2914","-66.32467","AR","19","San Luis","169947","America/Argentina/San_Luis","es","AR"
"3530599","Ciudad del Carmen","Ciudad del Carmen","18.64592","-91.82991","MX","04","Campeche","169466","America/Merida","es","MX"
"3531023","Chetumal","Chetumal","18.51957","-88.30397","MX","23","Quintana Roo","169028","America/Cancun","es","MX"
"7645166","San Miguel","San Miguel","-34.54335","-58.71229","AR","01","Buenos Aires","168762","America/Argentina/Buenos_Aires","es","AR"
"3531200","Chalco","Chalco","19.26174","-98.89775","MX","15","México","168720","America/Mexico_City","es","MX"
"11962431","Vila Andrade","Vila Andrade","-23.62623","-46.72828","BR","27","São Paulo","168669","America/Sao_Paulo","pt","BR"
"3453303","Poços de Caldas","Pocos de Caldas","-21.78778","-46.56139","BR","15","Minas Gerais","168641","America/Sao_Paulo","pt","BR"
"3647444","Calabozo","Calabozo","8.92416","-67.42929","VE","12","Guárico","168605","America/Caracas","es","VE"
"3471766","Araraquara","Araraquara","-21.79444","-48.17556","BR","27","São Paulo","168468","America/Sao_Paulo","pt","BR"
"3665688","Yopal","Yopal","5.33573","-72.3939","CO","32","Casanare Department","168433","America/Bogota","es","CO"
"3433360","Ituzaingó","Ituzaingo","-27.58504","-56.68707","AR","06","Corrientes","168419","America/Argentina/Cordoba","es","AR"
"3682426","Florencia","Florencia","1.61549","-75.60412","CO","08","Caquetá","168346","America/Bogota","es","CO"
"3463422","Ferraz de Vasconcelos","Ferraz de Vasconcelos","-23.54083","-46.36861","BR","27","São Paulo","167900","America/Sao_Paulo","pt","BR"
"5357527","Hollywood","Hollywood","34.09834","-118.32674","US","CA","California","167664","America/Los_Angeles","en","US"
"3646382","Carúpano","Carupano","10.66516","-63.25387","VE","19","Sucre","167187","America/Caracas","es","VE"
"5346111","Elk Grove","Elk Grove","38.4088","-121.37162","US","CA","California","166913","America/Los_Angeles","en","US"
"4613868","Clarksville","Clarksville","36.52977","-87.35945","US","TN","Tennessee","166722","America/Chicago","en","US"
"4168139","Pembroke Pines","Pembroke Pines","26.00315","-80.22394","US","FL","Florida","166611","America/New_York","en","US"
"3675657","Maicao","Maicao","11.37837","-72.2395","CO","17","La Guajira Department","166603","America/Bogota","es","CO"
"3407327","Arapiraca","Arapiraca","-9.7525","-36.66111","BR","02","Alagoas","166562","America/Maceio","pt","BR"
"3897347","Calama","Calama","-22.45667","-68.92371","CL","03","Antofagasta","166334","America/Santiago","es","CL"
"3631412","Ocumare del Tuy","Ocumare del Tuy","10.1182","-66.77513","VE","15","Miranda","166072","America/Caracas","es","VE"
"6094578","Oshawa","Oshawa","43.90012","-78.84957","CA","08","Ontario","166000","America/Toronto","en","CA"
"5292387","Deer Valley","Deer Valley","33.68393","-112.13488","US","AZ","Arizona","165656","America/Phoenix","en","US"
"3458930","Lages","Lages","-27.81611","-50.32611","BR","26","Santa Catarina","164676","America/Sao_Paulo","pt","BR"
"4169171","Port Saint Lucie","Port Saint Lucie","27.29393","-80.35033","US","FL","Florida","164603","America/New_York","en","US"
"11962389","Lajeado","Lajeado","-23.53361","-46.40866","BR","27","São Paulo","164391","America/Sao_Paulo","pt","BR"
"5339631","Corona","Corona","33.87529","-117.56644","US","CA","California","164226","America/Los_Angeles","en","US"
"3470636","Barra Mansa","Barra Mansa","-22.54417","-44.17139","BR","21","Rio de Janeiro","164052","America/Sao_Paulo","pt","BR"
"3456223","Nossa Senhora do Socorro","Nossa Senhora do Socorro","-10.855","-37.12611","BR","28","Sergipe","163993","America/Maceio","pt","BR"
"11962405","Pedreira","Pedreira","-23.70675","-46.64982","BR","27","São Paulo","163586","America/Sao_Paulo","pt","BR"
"5725846","Eugene","Eugene","44.05207","-123.08675","US","OR","Oregon","163460","America/Los_Angeles","en","US"
"3672328","Piedecuesta","Piedecuesta","6.98789","-73.04953","CO","26","Santander Department","163362","America/Bogota","es","CO"
"3682631","Envigado","Envigado","6.17591","-75.59174","CO","02","Antioquia","163007","America/Bogota","es","CO"
"4710178","McKinney","McKinney","33.19762","-96.61527","US","TX","Texas","162898","America/Chicago","en","US"
"3526485","Jiutepec","Jiutepec","18.88139","-99.17778","MX","17","Morelos","162427","America/Mexico_City","es","MX"
"3641099","El Vigía","El Vigia","8.6135","-71.65702","VE","14","Mérida","162289","America/Caracas","es","VE"
"3464460","Dourados","Dourados","-22.22111","-54.80556","BR","11","Mato Grosso do Sul","162202","America/Campo_Grande","pt","BR"
"3465196","Criciúma","Criciuma","-28.6775","-49.36972","BR","26","Santa Catarina","161954","America/Sao_Paulo","pt","BR"
"3893629","Coquimbo","Coquimbo","-29.95332","-71.33947","CL","07","Coquimbo Region","161317","America/Santiago","es","CL"
"5577147","Fort Collins","Fort Collins","40.58526","-105.08442","US","CO","Colorado","161175","America/Denver","en","US"
"5364940","Lancaster","Lancaster","34.69804","-118.13674","US","CA","California","161103","America/Los_Angeles","en","US"
"3628053","San Juan de los Morros","San Juan de los Morros","9.91246","-67.35398","VE","12","Guárico","160868","America/Caracas","es","VE"
"3691674","Sullana","Sullana","-4.90389","-80.68528","PE","20","Piura","160789","America/Lima","es","PE"
"3530049","Delegación Cuajimalpa de Morelos","Delegacion Cuajimalpa de Morelos","19.3692","-99.29089","MX","09","Mexico City","160491","America/Mexico_City","es","MX"
"3584399","Mejicanos","Mejicanos","13.72397","-89.188","SV","10","San Salvador Department","160317","America/El_Salvador","es","SV"
"3466296","Chapecó","Chapeco","-27.09639","-52.61833","BR","26","Santa Catarina","160157","America/Sao_Paulo","pt","BR"
"3996663","Manzanillo","Manzanillo","19.11695","-104.34214","MX","08","Colima","159853","America/Mexico_City","es","MX"
"3595237","Jalapa","Jalapa","14.63542","-89.99112","GT","10","Jalapa","159840","America/Guatemala","es","GT"
"4459467","Cary","Cary","35.79154","-78.78112","US","NC","North Carolina","159769","America/New_York","en","US"
"4744091","Alexandria","Alexandria","38.80484","-77.04692","US","VA","Virginia","159467","America/New_York","en","US"
"3538803","San Miguel del Padrón","San Miguel del Padron","23.09544","-82.32669","CU","02","Havana","159273","America/Havana","es","CU"
"3903320","Tarija","Tarija","-21.53549","-64.72956","BO","09","Tarija Department","159269","America/La_Paz","es","BO"
"3837702","Catamarca","Catamarca","-28.46957","-65.78524","AR","02","Catamarca","159139","America/Argentina/Catamarca","es","AR"
"5317071","Tempe Junction","Tempe Junction","33.41421","-111.94348","US","AZ","Arizona","158368","America/Phoenix","en","US"
"5380698","Palmdale","Palmdale","34.57943","-118.11646","US","CA","California","158351","America/Los_Angeles","en","US"
"3470583","Barreiras","Barreiras","-12.15278","-44.99","BR","05","Bahia","158292","America/Bahia","pt","BR"
"5355933","Hayward","Hayward","37.66882","-122.0808","US","CA","California","158289","America/Los_Angeles","en","US"
"3746183","Centro Habana","Centro Habana","23.13833","-82.36417","CU","02","Havana","158151","America/Havana","es","CU"
"3519537","San Cristóbal de las Casas","San Cristobal de las Casas","16.73006","-92.63825","MX","05","Chiapas","158027","America/Merida","es","MX"
"3387296","Sobral","Sobral","-3.68611","-40.34972","BR","06","Ceará","157996","America/Fortaleza","pt","BR"
"5964700","Greater Sudbury","Greater Sudbury","46.49","-80.99001","CA","08","Ontario","157857","America/Toronto","en","CA"
"5391295","Salinas","Salinas","36.67774","-121.6555","US","CA","California","157380","America/Los_Angeles","en","US"
"3529982","Cuautla","Cuautla","18.8106","-98.93525","MX","17","Morelos","157336","America/Mexico_City","es","MX"
"3838874","Río Cuarto","Rio Cuarto","-33.13044","-64.35272","AR","05","Cordoba","157010","America/Argentina/Cordoba","es","AR"
"3403741","Camaragibe","Camaragibe","-8.02167","-34.98111","BR","30","Pernambuco","156736","America/Recife","pt","BR"
"3595803","Escuintla","Escuintla","14.30097","-90.78816","GT","06","Escuintla","156313","America/Guatemala","es","GT"
"3518135","San Pablo de las Salinas","San Pablo de las Salinas","19.66658","-99.09477","MX","15","México","156191","America/Mexico_City","es","MX"
"5400075","Sunnyvale","Sunnyvale","37.36883","-122.03635","US","CA","California","155805","America/Los_Angeles","en","US"
"3460845","Itajaí","Itajai","-26.90778","-48.66194","BR","26","Santa Catarina","155716","America/Sao_Paulo","pt","BR"
"6318546","São Mateus","Sao Mateus","-23.60583","-46.47889","BR","27","São Paulo","155682","America/Sao_Paulo","pt","BR"
"3461408","Ilhéus","Ilheus","-14.79364","-39.03949","BR","05","Bahia","155499","America/Bahia","pt","BR"
"3587923","Villa Canales","Villa Canales","14.48285","-90.53425","GT","07","Guatemala","155423","America/Guatemala","es","GT"
"3884373","La Serena","La Serena","-29.90591","-71.25014","CL","07","Coquimbo Region","154521","America/Santiago","es","CL"
"4692559","Frisco","Frisco","33.15067","-96.82361","US","TX","Texas","154407","America/Chicago","en","US"
"4951788","Springfield","Springfield","42.10148","-72.58981","US","MA","Massachusetts","154341","America/New_York","en","US"
"3511540","San Cristóbal","San Cristobal","18.41713","-70.10682","DO","33","San Cristóbal","154040","America/Santo_Domingo","es","DO"
"4619947","East Chattanooga","East Chattanooga","35.06535","-85.24912","US","TN","Tennessee","154024","America/New_York","en","US"
"4717782","Pasadena","Pasadena","29.69106","-95.2091","US","TX","Texas","153784","America/Chicago","en","US"
"4431410","Jackson","Jackson","32.29876","-90.18481","US","MS","Mississippi","153701","America/Chicago","en","US"
"3454982","Parelheiros","Parelheiros","-23.8275","-46.72694","BR","27","São Paulo","153695","America/Sao_Paulo","pt","BR"
"3472177","Angra dos Reis","Angra dos Reis","-23.00667","-44.31806","BR","21","Rio de Janeiro","153635","America/Sao_Paulo","pt","BR"
"5384170","Pomona","Pomona","34.05529","-117.75228","US","CA","California","153266","America/Los_Angeles","en","US"
"3625515","Valle de La Pascua","Valle de La Pascua","9.21554","-66.00734","VE","12","Guárico","153136","America/Caracas","es","VE"
"3943789","Chincha Alta","Chincha Alta","-13.40985","-76.13235","PE","11","Ica","153076","America/Lima","es","PE"
"3450909","Rondonópolis","Rondonopolis","-16.47083","-54.63556","BR","14","Mato Grosso","152912","America/Cuiaba","pt","BR"
"5143307","Washington Heights","Washington Heights","40.8501","-73.93541","US","NY","New York","152613","America/New_York","en","US"
"5427946","Lakewood","Lakewood","39.70471","-105.08137","US","CO","Colorado","152597","America/Denver","en","US"
"3452525","Pouso Alegre","Pouso Alegre","-22.23","-45.93639","BR","15","Minas Gerais","152549","America/Sao_Paulo","pt","BR"
"6693228","Balvanera","Balvanera","-34.61032","-58.39766","AR","07","Buenos Aires F.D.","152198","America/Argentina/Buenos_Aires","es","AR"
"4003757","Ciudad Benito Juárez","Ciudad Benito Juarez","25.64724","-100.09582","MX","19","Nuevo León","151893","America/Monterrey","es","MX"
"3460748","Itapecerica da Serra","Itapecerica da Serra","-23.71694","-46.84917","BR","27","São Paulo","151605","America/Sao_Paulo","pt","BR"
"4273837","Kansas City","Kansas City","39.11417","-94.62746","US","KS","Kansas","151306","America/Chicago","en","US"
"5346827","Escondido","Escondido","33.11921","-117.08642","US","CA","California","151038","America/Los_Angeles","en","US"
"3461879","Guarapuava","Guarapuava","-25.39048","-51.46541","BR","18","Paraná","150850","America/Sao_Paulo","pt","BR"
"3895088","Chillán","Chillan","-36.60664","-72.10344","CL","18","Ñuble","150396","America/Santiago","es","CL"
"3992619","Piedras Negras","Piedras Negras","28.70007","-100.52353","MX","07","Coahuila","150178","America/Matamoros","es","MX"
"5107464","Astoria","Astoria","40.77205","-73.93014","US","NY","New York","150165","America/New_York","en","US"
"3521342","Playa del Carmen","Playa del Carmen","20.6274","-87.07987","MX","23","Quintana Roo","149923","America/Cancun","es","MX"
"4158928","Hollywood","Hollywood","26.0112","-80.14949","US","FL","Florida","149728","America/New_York","en","US"
"11962378","Iguatemi","Iguatemi","-23.61277","-46.42667","BR","27","São Paulo","149700","America/Sao_Paulo","pt","BR"
"5109790","Borough Park","Borough Park","40.63399","-73.99681","US","NY","New York","149248","America/New_York","en","US"
"5405288","Valencia","Valencia","34.44361","-118.60953","US","CA","California","148456","America/Los_Angeles","en","US"
"4907959","Rockford","Rockford","42.27113","-89.094","US","IL","Illinois","148278","America/Chicago","en","US"
"3642833","El Limón","El Limon","10.30589","-67.63212","VE","04","Aragua","148247","America/Caracas","es","VE"
"11962430","Sao Rafael","Sao Rafael","-23.62821","-46.45395","BR","27","São Paulo","148145","America/Sao_Paulo","pt","BR"
"3469136","Botucatu","Botucatu","-22.88583","-48.445","BR","27","São Paulo","148130","America/Sao_Paulo","pt","BR"
"3402383","Caxias","Caxias","-4.85889","-43.35611","BR","13","Maranhão","148072","America/Fortaleza","pt","BR"
"4756955","East Hampton","East Hampton","37.03737","-76.33161","US","VA","Virginia","147993","America/New_York","en","US"
"4898015","Joliet","Joliet","41.52519","-88.0834","US","IL","Illinois","147861","America/Chicago","en","US"
"4221552","Savannah","Savannah","32.08354","-81.09983","US","GA","Georgia","147780","America/New_York","en","US"
"5102466","Paterson","Paterson","40.91677","-74.17181","US","NJ","New Jersey","147754","America/New_York","en","US"
"5282804","Bridgeport","Bridgeport","41.17923","-73.18945","US","CT","Connecticut","147629","America/New_York","en","US"
"3567924","Balcón de la Lisa","Balcon de la Lisa","23.05346","-82.4476","CU","02","Havana","147415","America/Havana","es","CU"
"3456290","Nilópolis","Nilopolis","-22.8075","-43.41389","BR","21","Rio de Janeiro","147281","America/Sao_Paulo","pt","BR"
"4903279","Naperville","Naperville","41.78586","-88.14729","US","IL","Illinois","147100","America/Chicago","en","US"
"4013516","Colima","Colima","19.24473","-103.7127","MX","08","Colima","146965","America/Mexico_City","es","MX"
"3547398","Matanzas","Matanzas","23.04388","-81.58284","CU","03","Matanzas Province","146733","America/Havana","es","CU"
"3493175","Puerto Plata","Puerto Plata","19.79344","-70.6884","DO","18","Puerto Plata","146000","America/Santo_Domingo","es","DO"
"3595069","Jutiapa","Jutiapa","14.28491","-89.88798","GT","11","Jutiapa","145880","America/Guatemala","es","GT"
"3395503","Marabá","Maraba","-5.38146","-49.13232","BR","16","Pará","145860","America/Belem","pt","BR"
"3435261","Concordia","Concordia","-31.39195","-58.01706","AR","08","Entre Rios","145210","America/Argentina/Cordoba","es","AR"
"3488465","Spanish Town","Spanish Town","17.99107","-76.95742","JM","10","Saint Catherine Parish","145018","America/Jamaica","en","JM"
"4710826","Mesquite","Mesquite","32.7668","-96.59916","US","TX","Texas","144788","America/Chicago","en","US"
"3618030","León","Leon","12.43527","-86.87862","NI","08","León Department","144538","America/Managua","es","NI"
"5140405","Syracuse","Syracuse","43.04812","-76.14742","US","NY","New York","144142","America/New_York","en","US"
"3471335","Atibaia","Atibaia","-23.11694","-46.55028","BR","27","São Paulo","144088","America/Sao_Paulo","pt","BR"
"6137270","Saguenay","Saguenay","48.41675","-71.06573","CA","10","Quebec","143692","America/Toronto","en","CA"
"3458329","Luziânia","Luziania","-16.2525","-47.95028","BR","29","Goiás","143601","America/Sao_Paulo","pt","BR"
"5403022","Torrance","Torrance","33.83585","-118.34063","US","CA","California","143592","America/Los_Angeles","en","US"
"6325521","Lévis","Levis","46.80326","-71.17793","CA","10","Quebec","143414","America/Toronto","en","CA"
"11962407","Cachoeirinha","Cachoeirinha","-23.45442","-46.66209","BR","27","São Paulo","143366","America/Sao_Paulo","pt","BR"
"5316428","Surprise","Surprise","33.63059","-112.33322","US","AZ","Arizona","143148","America/Phoenix","en","US"
"3404545","Cabo de Santo Agostinho","Cabo de Santo Agostinho","-8.28773","-35.02925","BR","30","Pernambuco","143105","America/Recife","pt","BR"
"3458266","Macaé","Macae","-22.38484","-41.78324","BR","21","Rio de Janeiro","143029","America/Sao_Paulo","pt","BR"
"4333190","Metairie Terrace","Metairie Terrace","29.97854","-90.16396","US","LA","Louisiana","142489","America/Chicago","en","US"
"4575352","Columbia","Columbia","34.00071","-81.03481","US","SC","South Carolina","142416","America/New_York","en","US"
"5381396","Pasadena","Pasadena","34.14778","-118.14452","US","CA","California","142250","America/Los_Angeles","en","US"
"5990579","Kelowna","Kelowna","49.88307","-119.48568","CA","02","British Columbia","142146","America/Vancouver","en","CA"
"3899887","Alto Hospicio","Alto Hospicio","-20.26871","-70.1049","CL","15","Tarapacá","142086","America/Santiago","es","CL"
"3564178","Ciego de Ávila","Ciego de Avila","21.8422","-78.76034","CU","07","Ciego de Ávila Province","142027","America/Havana","es","CU"
"3682516","Facatativá","Facatativa","4.81367","-74.35453","CO","33","Cundinamarca","141762","America/Bogota","es","CO"
"3629576","Punto Fijo","Punto Fijo","11.69152","-70.19918","VE","11","Falcón","141729","America/Caracas","es","VE"
"3979802","Zamora","Zamora","19.9855","-102.28387","MX","16","Michoacán","141627","America/Mexico_City","es","MX"
"3598655","Chichicastenango","Chichicastenango","14.94333","-91.11116","GT","14","Quiché","141567","America/Guatemala","es","GT"
"5894171","Barrie","Barrie","44.40011","-79.66634","CA","08","Ontario","141434","America/Toronto","en","CA"
"5881791","Abbotsford","Abbotsford","49.05798","-122.25257","CA","02","British Columbia","141397","America/Vancouver","en","CA"
"3461563","Ibirité","Ibirite","-20.02194","-44.05889","BR","15","Minas Gerais","141374","America/Sao_Paulo","pt","BR"
"6317464","Lauro de Freitas","Lauro de Freitas","-12.89444","-38.32722","BR","05","Bahia","141280","America/Bahia","pt","BR"
"3907584","Potosí","Potosi","-19.58361","-65.75306","BO","07","Potosí Department","141251","America/La_Paz","es","BO"
"11962398","Cangaiba","Cangaiba","-23.49696","-46.52045","BR","27","São Paulo","141172","America/Sao_Paulo","pt","BR"
"4156404","Gainesville","Gainesville","29.65163","-82.32483","US","FL","Florida","141085","America/New_York","en","US"
"3455070","Paranaguá","Paranagua","-25.51626","-48.52537","BR","18","Paraná","141013","America/Sao_Paulo","pt","BR"
"5379513","Orange","Orange","33.78779","-117.85311","US","CA","California","140992","America/Los_Angeles","en","US"
"3530240","Córdoba","Cordoba","18.8842","-96.92559","MX","30","Veracruz","140896","America/Mexico_City","es","MX"
"3860443","Comodoro Rivadavia","Comodoro Rivadavia","-45.86256","-67.494","AR","04","Chubut","140850","America/Argentina/Catamarca","es","AR"
"5351247","Fullerton","Fullerton","33.87029","-117.92534","US","CA","California","140847","America/Los_Angeles","en","US"
"4703223","Killeen","Killeen","31.11712","-97.7278","US","TX","Texas","140806","America/Chicago","en","US"
"11962432","Vila Curuca","Vila Curuca","-23.51","-46.41566","BR","27","São Paulo","140673","America/Sao_Paulo","pt","BR"
"4709796","McAllen","McAllen","26.20341","-98.23001","US","TX","Texas","140269","America/Chicago","en","US"
"3947019","Ayacucho","Ayacucho","-13.1638","-74.22345","PE","05","Ayacucho","140033","America/Lima","es","PE"
"5927690","Coquitlam","Coquitlam","49.2846","-122.78217","CA","02","British Columbia","140000","America/Vancouver","en","CA"
"5786882","Bellevue","Bellevue","47.61038","-122.20068","US","WA","Washington","139820","America/Los_Angeles","en","US"
"3486270","Anaco","Anaco","9.42958","-64.46428","VE","02","Anzoátegui","139397","America/Caracas","es","VE"
"8393989","Plaza de la Revolución","Plaza de la Revolucion","23.11936","-82.39197","CU","02","Havana","139135","America/Havana","es","CU"
"3613533","Choloma","Choloma","15.61444","-87.95302","HN","06","Cortés Department","139100","America/Tegucigalpa","es","HN"
"3436077","Belgrano","Belgrano","-34.5627","-58.45829","AR","07","Buenos Aires F.D.","138942","America/Argentina/Buenos_Aires","es","AR"
"3518692","San Juan del Río","San Juan del Rio","20.38886","-99.99577","MX","22","Querétaro","138878","America/Mexico_City","es","MX"
"4333177","Metairie","Metairie","29.98409","-90.15285","US","LA","Louisiana","138481","America/Chicago","en","US"
"3626402","Táriba","Tariba","7.82117","-72.22329","VE","20","Táchira","138402","America/Caracas","es","VE"
"11962379","Sao Lucas","Sao Lucas","-23.59468","-46.54359","BR","27","São Paulo","138038","America/Sao_Paulo","pt","BR"
"3393001","Parnaíba","Parnaiba","-2.90472","-41.77667","BR","20","Piauí","138008","America/Fortaleza","pt","BR"
"3723779","Jacmel","Jacmel","18.23427","-72.53539","HT","13","Sud-Est","137966","America/Port-au-Prince","fr","HT"
"3460535","Itu","Itu","-23.26417","-47.29917","BR","27","São Paulo","137586","America/Sao_Paulo","pt","BR"
"4566880","Ponce","Ponce","18.01031","-66.62398","PR","113","Ponce","137491","America/Puerto_Rico","es","PR"
"3402591","Castanhal","Castanhal","-1.29389","-47.92639","BR","16","Pará","137406","America/Belem","pt","BR"
"3456225","Freguesia do Ó","Freguesia do O","-23.49877","-46.69983","BR","27","São Paulo","137240","America/Sao_Paulo","pt","BR"
"4164601","Miramar","Miramar","25.98731","-80.23227","US","FL","Florida","137132","America/New_York","en","US"
"3589885","San Juan Sacatepéquez","San Juan Sacatepequez","14.71889","-90.64417","GT","07","Guatemala","136886","America/Guatemala","es","GT"
"11962385","Cidade Lider","Cidade Lider","-23.56202","-46.4913","BR","27","São Paulo","136660","America/Sao_Paulo","pt","BR"
